station_cd,station_g_cd,station_name,station_name_k,station_name_r,line_cd,pref_cd,post,address,lon,lat,open_ymd,close_ymd,e_status,e_sort
1110101,1110101,函館,,,11101,1,040-0063,北海道函館市若松町１２-１３,140.726413,41.773709,1902-12-10,0000-00-00,0,1110101
1110102,1110102,五稜郭,,,11101,1,041-0813,函館市亀田本町,140.733539,41.803557,0000-00-00,0000-00-00,0,1110102
1110103,1110103,桔梗,,,11101,1,041-0801,北海道函館市桔梗３丁目４１-３６,140.722952,41.846457,1902-12-10,0000-00-00,0,1110103
1110104,1110104,大中山,,,11101,1,041-1121,亀田郡七飯町大字大中山,140.71358,41.864641,0000-00-00,0000-00-00,0,1110104
1110105,1110105,七飯,,,11101,1,041-1111,亀田郡七飯町字本町,140.688556,41.886971,0000-00-00,0000-00-00,0,1110105
1110106,1110106,新函館北斗,,,11101,1,041-1242,北海道北斗市市渡,140.646525,41.9054,1902-12-10,0000-00-00,0,1110106
1110107,1110107,仁山,,,11101,1,041-1101,亀田郡七飯町字仁山,140.635183,41.930011,0000-00-00,0000-00-00,0,1110107
1110108,1110108,大沼,,,11101,1,041-1354,北海道亀田郡七飯町字大沼町４,140.669347,41.971954,1903-06-28,0000-00-00,0,1110108
1110109,1110109,大沼公園,,,11101,1,041-1354,北海道亀田郡七飯町字大沼町８５,140.669758,41.980958,1907-06-05,0000-00-00,0,1110109
1110110,1110110,赤井川,,,11101,1,049-2142,茅部郡森町字赤井川,140.642678,42.003267,0000-00-00,0000-00-00,0,1110110
1110111,1110111,駒ケ岳,,,11101,1,049-2300,北海道茅部郡森町字駒ヶ岳,140.610476,42.038809,0000-00-00,0000-00-00,0,1110111
1110112,1110112,東山,,,11101,1,049-2141,茅部郡森町字駒ケ岳,140.605222,42.06172,1943-02-26,2017-03-04,2,1110112
1110113,1110113,姫川,,,11101,1,049-2306,茅部郡森町字姫川,140.591632,42.081312,1951-05-19,2017-03-04,2,1110113
1110114,1110114,池田園,,,11101,1,041-1352,亀田郡七飯町字軍川,140.700333,41.990692,1945-06-01,2022-03-12,2,1110114
1110115,1110115,流山温泉,,,11101,1,041-1351,亀田郡七飯町字東大沼２３６,140.716358,42.003483,2002-04-27,2022-03-12,2,1110115
1110116,1110116,銚子口,,,11101,1,041-1351,亀田郡七飯町字東大沼,140.720656,42.015471,1945-06-01,2022-03-12,2,1110116
1110117,1110117,鹿部,,,11101,1,041-1404,茅部郡鹿部町字本別,140.771393,42.06439,0000-00-00,0000-00-00,0,1110117
1110118,1110118,渡島沼尻,,,11101,1,049-2223,茅部郡森町砂原東４丁目,140.747596,42.10706,0000-00-00,0000-00-00,0,1110118
1110119,1110119,渡島砂原,,,11101,1,049-2222,茅部郡森町砂原４丁目,140.689451,42.12164,0000-00-00,0000-00-00,0,1110119
1110120,1110120,掛澗,,,11101,1,049-2221,茅部郡森町砂原西３丁目,140.64598,42.119205,0000-00-00,0000-00-00,0,1110120
1110121,1110121,尾白内,,,11101,1,049-2301,茅部郡森町字尾白内町,140.613449,42.111232,0000-00-00,0000-00-00,0,1110121
1110122,1110122,東森,,,11101,1,049-2302,茅部郡森町字港町,140.59353,42.106823,0000-00-00,0000-00-00,0,1110122
1110123,1110123,森,,,11101,1,049-2325,茅部郡森町字本町,140.573846,42.108917,0000-00-00,0000-00-00,0,1110123
1110124,1110124,桂川,,,11101,1,049-2321,茅部郡森町字鷲ノ木町,140.5427876,42.1156004,1944-09-30,2017-03-04,2,1110124
1110125,1110125,石谷,,,11101,1,049-2464,茅部郡森町字本茅部町,140.506525,42.135519,1930-03-20,2022-03-12,2,1110125
1110126,1110126,本石倉,,,11101,1,049-2463,茅部郡森町字石倉町,140.471957,42.159668,1944-09-10,2022-03-12,2,1110126
1110127,1110127,石倉,,,11101,1,049-2463,茅部郡森町字石倉町,140.458436,42.17285,0000-00-00,0000-00-00,0,1110127
1110128,1110128,落部,,,11101,1,049-2562,二海郡八雲町落部,140.420755,42.187617,0000-00-00,0000-00-00,0,1110128
1110129,1110129,野田生,,,11101,1,049-2672,二海郡八雲町野田生,140.37586,42.217104,0000-00-00,0000-00-00,0,1110129
1110130,1110130,山越,,,11101,1,049-2671,二海郡八雲町山越,140.326593,42.231172,0000-00-00,0000-00-00,0,1110130
1110131,1110131,八雲,,,11101,1,049-3107,二海郡八雲町本町,140.273342,42.253391,0000-00-00,0000-00-00,0,1110131
1110132,1110132,鷲ノ巣,,,11101,1,049-3122,二海郡八雲町花浦,140.269919,42.278389,1987-04-01,2016-03-26,2,1110132
1110133,1110133,山崎,,,11101,1,049-3342,二海郡八雲町山崎,140.2746,42.314635,0000-00-00,0000-00-00,0,1110133
1110134,1110134,黒岩,,,11101,1,049-3341,二海郡八雲町黒岩,140.288173,42.368296,0000-00-00,0000-00-00,0,1110134
1110135,1110135,北豊津,,,11101,1,049-3464,山越郡長万部町字豊津,140.297868,42.400969,1944-07-01,2017-03-04,2,1110135
1110136,1110136,国縫,,,11101,1,049-3462,山越郡長万部町字国縫,140.320885,42.439319,0000-00-00,0000-00-00,0,1110136
1110137,1110137,中ノ沢,,,11101,1,049-3512,山越郡長万部町字中の沢,140.346077,42.477928,0000-00-00,0000-00-00,0,1110137
1110138,1110138,長万部,,,11101,1,049-3521,山越郡長万部町字長万部,140.37507,42.512477,1903-11-03,0000-00-00,0,1110138
1110201,1110138,長万部,,,11102,1,049-3521,山越郡長万部町字長万部,140.37507,42.512477,0000-00-00,0000-00-00,0,1110201
1110202,1110202,二股,,,11102,1,049-3501,山越郡長万部町字双葉,140.320821,42.575869,0000-00-00,0000-00-00,0,1110202
1110203,1110203,蕨岱,,,11102,1,049-3503,山越郡長万部町字蕨岱,140.313353,42.626353,1904-10-15,2017-03-04,2,1110203
1110204,1110204,黒松内,,,11102,1,048-0101,寿都郡黒松内町字黒松内,140.305704,42.669608,0000-00-00,0000-00-00,0,1110204
1110205,1110205,熱郛,,,11102,1,048-0134,寿都郡黒松内町字白井川,140.375084,42.675653,0000-00-00,0000-00-00,0,1110205
1110206,1110206,目名,,,11102,1,048-1261,磯谷郡蘭越町目名町,140.465742,42.761432,0000-00-00,0000-00-00,0,1110206
1110207,1110207,蘭越,,,11102,1,048-1301,磯谷郡蘭越町蘭越町,140.52894,42.804542,0000-00-00,0000-00-00,0,1110207
1110208,1110208,昆布,,,11102,1,048-1302,磯谷郡蘭越町昆布町,140.596107,42.797984,0000-00-00,0000-00-00,0,1110208
1110209,1110209,ニセコ,,,11102,1,048-1512,虻田郡ニセコ町字中央通,140.684588,42.808746,0000-00-00,0000-00-00,0,1110209
1110210,1110210,比羅夫,,,11102,1,044-0077,虻田郡倶知安町比羅夫,140.722615,42.84856,0000-00-00,0000-00-00,0,1110210
1110211,1110211,倶知安,,,11102,1,044-0051,虻田郡倶知安町北三条西４丁目,140.745471,42.90164,0000-00-00,0000-00-00,0,1110211
1110212,1110212,小沢,,,11102,1,048-2142,岩内郡共和町小沢,140.677657,42.97185,0000-00-00,0000-00-00,0,1110212
1110213,1110213,銀山,,,11102,1,048-2335,余市郡仁木町銀山２丁目,140.715321,43.040888,0000-00-00,0000-00-00,0,1110213
1110214,1110214,然別,,,11102,1,048-2403,余市郡仁木町然別,140.737211,43.12551,0000-00-00,0000-00-00,0,1110214
1110215,1110215,仁木,,,11102,1,048-2405,余市郡仁木町字北町１丁目,140.770546,43.154091,0000-00-00,0000-00-00,0,1110215
1110216,1110216,余市,,,11102,1,046-0003,余市郡余市町黒川町５丁目,140.794686,43.186558,0000-00-00,0000-00-00,0,1110216
1110217,1110217,蘭島,,,11102,1,048-2562,小樽市蘭島１丁目,140.854643,43.19651,0000-00-00,0000-00-00,0,1110217
1110218,1110218,塩谷,,,11102,1,048-2672,小樽市塩谷２丁目,140.924546,43.202406,0000-00-00,0000-00-00,0,1110218
1110219,1110219,小樽,,,11102,1,047-0032,小樽市稲穂２丁目,140.993653,43.197172,0000-00-00,0000-00-00,0,1110219
1110301,1110219,小樽,,,11103,1,047-0032,小樽市稲穂２丁目,140.993653,43.197172,0000-00-00,0000-00-00,0,1110301
1110302,1110302,南小樽,,,11103,1,047-0015,小樽市住吉町,141.007883,43.186529,0000-00-00,0000-00-00,0,1110302
1110303,1110303,小樽築港,,,11103,1,047-0008,小樽市築港,141.029051,43.180752,0000-00-00,0000-00-00,0,1110303
1110304,1110304,朝里,,,11103,1,047-0151,小樽市朝里１丁目,141.063923,43.176868,0000-00-00,0000-00-00,0,1110304
1110305,1110305,銭函,,,11103,1,047-0261,小樽市銭函２丁目,141.159868,43.143403,0000-00-00,0000-00-00,0,1110305
1110306,1110306,ほしみ,,,11103,1,006-0859,札幌市手稲区手稲星置１条９丁目,141.191402,43.13373,0000-00-00,0000-00-00,0,1110306
1110307,1110307,星置,,,11103,1,006-0851,札幌市手稲区星置１条３丁目,141.210856,43.132375,0000-00-00,0000-00-00,0,1110307
1110308,1110308,稲穂,,,11103,1,006-0831,札幌市手稲区曙１条３丁目,141.222919,43.128115,0000-00-00,0000-00-00,0,1110308
1110309,1110309,手稲,,,11103,1,006-0021,札幌市手稲区手稲本町１条４丁目,141.243785,43.120238,0000-00-00,0000-00-00,0,1110309
1110310,1110310,稲積公園,,,11103,1,006-0011,札幌市手稲区富丘１条４丁目,141.257113,43.112023,0000-00-00,0000-00-00,0,1110310
1110311,1110311,発寒,,,11103,1,063-0829,札幌市西区発寒９条１３丁目,141.277273,43.099819,0000-00-00,0000-00-00,0,1110311
1110312,1110312,発寒中央,,,11103,1,063-0826,札幌市西区発寒十条３丁目,141.294497,43.089271,0000-00-00,0000-00-00,0,1110312
1110313,1110313,琴似,,,11103,1,063-0812,札幌市西区琴似2条2丁目,141.307418,43.081599,0000-00-00,0000-00-00,0,1110313
1110314,1110314,桑園,,,11103,1,060-0011,札幌市中央区北１１条西１５丁目,141.332036,43.070744,0000-00-00,0000-00-00,0,1110314
1110315,1110315,札幌,,,11103,1,060-0806,札幌市北区北６条西４丁目,141.350768,43.068612,0000-00-00,0000-00-00,0,1110315
1110316,1110316,苗穂,,,11103,1,060-0033,札幌市中央区北３条東１３丁目,141.377522,43.068574,0000-00-00,0000-00-00,0,1110316
1110317,1110317,白石,,,11103,1,003-0029,札幌市白石区平和通3丁目北6,141.413612,43.054715,1903-04-21,0000-00-00,0,1110317
1110318,1110318,厚別,,,11103,1,004-0055,札幌市厚別区厚別中央５条４丁目,141.46369,43.045154,0000-00-00,0000-00-00,0,1110318
1110319,1110319,森林公園,,,11103,1,004-0071,札幌市厚別区厚別北１条４丁目,141.481332,43.056456,0000-00-00,0000-00-00,0,1110319
1110320,1110320,大麻,,,11103,1,069-0854,江別市大麻中町,141.496925,43.072382,0000-00-00,0000-00-00,0,1110320
1110321,1110321,野幌,,,11103,1,069-0813,江別市野幌町,141.52984,43.092559,0000-00-00,0000-00-00,0,1110321
1110322,1110322,高砂,,,11103,1,067-0074,江別市高砂町,141.540752,43.100084,0000-00-00,0000-00-00,0,1110322
1110323,1110323,江別,,,11103,1,067-0071,江別市萩ケ岡,141.55679,43.110189,0000-00-00,0000-00-00,0,1110323
1110324,1110324,豊幌,,,11103,1,067-0021,江別市豊幌,141.62466,43.136446,0000-00-00,0000-00-00,0,1110324
1110325,1110325,幌向,,,11103,1,069-0371,岩見沢市幌向南１条３丁目,141.655839,43.151348,0000-00-00,0000-00-00,0,1110325
1110326,1110326,上幌向,,,11103,1,069-0362,岩見沢市上幌向南１条４丁目,141.715391,43.18183,0000-00-00,0000-00-00,0,1110326
1110327,1110327,岩見沢,,,11103,1,068-0034,岩見沢市有明町南,141.759359,43.204201,0000-00-00,0000-00-00,0,1110327
1110328,1110328,峰延,,,11103,1,072-0000,美唄市峰延,141.814673,43.264694,0000-00-00,0000-00-00,0,1110328
1110329,1110329,光珠内,,,11103,1,072-0000,美唄市光珠内,141.844655,43.292658,0000-00-00,0000-00-00,0,1110329
1110330,1110330,美唄,,,11103,1,072-0012,美唄市東一条南２丁目,141.862157,43.330751,0000-00-00,0000-00-00,0,1110330
1110331,1110331,茶志内,,,11103,1,079-0261,美唄市茶志内町,141.87336,43.369842,0000-00-00,0000-00-00,0,1110331
1110332,1110332,奈井江,,,11103,1,079-0313,空知郡奈井江町本町１区,141.889115,43.423718,0000-00-00,0000-00-00,0,1110332
1110333,1110333,豊沼,,,11103,1,073-0138,砂川市豊沼町,141.901032,43.464224,0000-00-00,0000-00-00,0,1110333
1110334,1110334,砂川,,,11103,1,073-0152,砂川市東２条北２丁目,141.909642,43.493468,0000-00-00,0000-00-00,0,1110334
1110335,1110335,滝川,,,11103,1,073-0031,滝川市栄町４丁目,141.900807,43.555278,0000-00-00,0000-00-00,0,1110335
1110336,1110336,江部乙,,,11103,1,079-0462,滝川市江部乙町西町１２丁目,141.935937,43.627564,0000-00-00,0000-00-00,0,1110336
1110337,1110337,妹背牛,,,11103,1,079-0500,雨竜郡妹背牛町字妹背牛,141.966591,43.690841,0000-00-00,0000-00-00,0,1110337
1110338,1110338,深川,,,11103,1,074-0001,深川市１条,142.041642,43.721021,0000-00-00,0000-00-00,0,1110338
1110339,1110339,納内,,,11103,1,078-0151,深川市納内町字納内,142.130072,43.732509,0000-00-00,0000-00-00,0,1110339
1110340,1110340,伊納,,,11103,1,070-8052,旭川市江丹別町春日,142.27167,43.763305,1898-07-16,2021-03-13,2,1110340
1110341,1110341,近文,,,11103,1,070-0821,旭川市近文町１９丁目,142.325327,43.789193,0000-00-00,0000-00-00,0,1110341
1110342,1110342,旭川,,,11103,1,070-0030,旭川市宮下通８丁目,142.357803,43.763492,0000-00-00,0000-00-00,0,1110342
1110401,1110138,長万部,,,11104,1,049-3521,山越郡長万部町字長万部,140.37507,42.512477,0000-00-00,0000-00-00,0,1110401
1110402,1110402,静狩,,,11104,1,049-5141,山越郡長万部町字静狩,140.460025,42.584065,0000-00-00,0000-00-00,0,1110402
1110403,1110403,小幌,,,11104,1,049-5333,虻田郡豊浦町字礼文華,140.537361,42.589731,0000-00-00,0000-00-00,0,1110403
1110404,1110404,礼文,,,11104,1,049-5333,虻田郡豊浦町字礼文華,140.595013,42.580422,0000-00-00,0000-00-00,0,1110404
1110405,1110405,大岸,,,11104,1,049-5332,虻田郡豊浦町字大岸,140.639036,42.585969,0000-00-00,0000-00-00,0,1110405
1110406,1110406,豊浦,,,11104,1,049-5412,虻田郡豊浦町字旭町,140.71536,42.580323,0000-00-00,0000-00-00,0,1110406
1110407,1110407,洞爺,,,11104,1,049-5611,虻田郡洞爺湖町旭町,140.763959,42.55055,0000-00-00,0000-00-00,0,1110407
1110408,1110408,有珠,,,11104,1,059-0151,伊達市有珠町,140.793969,42.513267,0000-00-00,0000-00-00,0,1110408
1110409,1110409,長和,,,11104,1,052-0035,伊達市長和町,140.833783,42.488262,0000-00-00,0000-00-00,0,1110409
1110410,1110410,伊達紋別,,,11104,1,052-0032,伊達市山下町,140.855802,42.469395,0000-00-00,0000-00-00,0,1110410
1110411,1110411,北舟岡,,,11104,1,052-0014,伊達市舟岡町,140.880259,42.450528,0000-00-00,0000-00-00,0,1110411
1110412,1110412,稀府,,,11104,1,059-0273,伊達市南稀府町,140.898836,42.425567,0000-00-00,0000-00-00,0,1110412
1110413,1110413,黄金,,,11104,1,059-0271,伊達市南黄金町,140.907781,42.386441,0000-00-00,0000-00-00,0,1110413
1110414,1110414,崎守,,,11104,1,050-0055,室蘭市崎守町,140.927141,42.373968,0000-00-00,0000-00-00,0,1110414
1110415,1110415,本輪西,,,11104,1,050-0065,室蘭市本輪西町１丁目,140.977561,42.358734,0000-00-00,0000-00-00,0,1110415
1110416,1110416,室蘭,,,11104,1,051-0023,室蘭市入江町１,140.97571,42.317864,0000-00-00,0000-00-00,0,1110416
1110417,1110417,母恋,,,11104,1,051-0004,室蘭市母恋北町１丁目,140.990018,42.317295,0000-00-00,0000-00-00,0,1110417
1110418,1110418,御崎,,,11104,1,051-0001,室蘭市御崎町２丁目,140.993881,42.329014,0000-00-00,0000-00-00,0,1110418
1110419,1110419,輪西,,,11104,1,050-0087,室蘭市仲町,141.005743,42.333775,0000-00-00,0000-00-00,0,1110419
1110420,1110420,東室蘭,,,11104,1,050-0083,室蘭市東町２丁目,141.026411,42.349374,0000-00-00,0000-00-00,0,1110420
1110421,1110421,鷲別,,,11104,1,059-0034,登別市鷲別町２丁目,141.042759,42.35953,0000-00-00,0000-00-00,0,1110421
1110422,1110422,幌別,,,11104,1,059-0013,登別市幌別町３丁目,141.107293,42.409782,0000-00-00,0000-00-00,0,1110422
1110423,1110423,富浦,,,11104,1,059-0462,登別市富浦町１丁目,141.156878,42.441957,0000-00-00,0000-00-00,0,1110423
1110424,1110424,登別,,,11104,1,059-0466,登別市登別港町１丁目,141.180931,42.45207,0000-00-00,0000-00-00,0,1110424
1110425,1110425,虎杖浜,,,11104,1,059-0641,白老郡白老町字虎杖浜,141.215092,42.464695,0000-00-00,0000-00-00,0,1110425
1110426,1110426,竹浦,,,11104,1,059-0642,白老郡白老町字竹浦,141.260395,42.49284,0000-00-00,0000-00-00,0,1110426
1110427,1110427,北吉原,,,11104,1,059-0923,白老郡白老町字北吉原,141.286199,42.509119,0000-00-00,0000-00-00,0,1110427
1110428,1110428,萩野,,,11104,1,059-0922,白老郡白老町字萩野,141.30603,42.521159,0000-00-00,0000-00-00,0,1110428
1110429,1110429,白老,,,11104,1,059-0904,白老郡白老町東町１丁目,141.360054,42.55474,0000-00-00,0000-00-00,0,1110429
1110430,1110430,社台,,,11104,1,059-0901,白老郡白老町字社台,141.417433,42.578682,0000-00-00,0000-00-00,0,1110430
1110431,1110431,錦岡,,,11104,1,059-1275,苫小牧市字錦岡,141.48722,42.6025,0000-00-00,0000-00-00,0,1110431
1110432,1110432,糸井,,,11104,1,053-0816,苫小牧市日吉町３丁目,141.546187,42.6225,0000-00-00,0000-00-00,0,1110432
1110433,1110433,青葉,,,11104,1,053-0807,苫小牧市青葉町１丁目,141.568278,42.62999,0000-00-00,0000-00-00,0,1110433
1110434,1110434,苫小牧,,,11104,1,053-0022,苫小牧市表町６丁目,141.596837,42.639665,0000-00-00,0000-00-00,0,1110434
1110501,1110434,苫小牧,,,11105,1,053-0022,苫小牧市表町６丁目,141.596837,42.639665,0000-00-00,0000-00-00,0,1110501
1110502,1110502,沼ノ端,,,11105,1,059-1364,苫小牧市字沼ノ端,141.693132,42.672057,0000-00-00,0000-00-00,0,1110502
1110503,1110503,遠浅,,,11105,1,059-1433,勇払郡安平町遠浅,141.769568,42.729533,0000-00-00,0000-00-00,0,1110503
1110504,1110504,早来,,,11105,1,059-1501,勇払郡安平町早来大町,141.814106,42.765237,0000-00-00,0000-00-00,0,1110504
1110505,1110505,安平,,,11105,1,059-1511,勇払郡安平町安平,141.825283,42.814007,0000-00-00,0000-00-00,0,1110505
1110506,1110506,追分,,,11105,1,059-1931,勇払郡安平町追分中央,141.810678,42.873316,0000-00-00,0000-00-00,0,1110506
1110507,1110507,三川,,,11105,1,069-1200,夕張郡由仁町三川,141.800778,42.945029,0000-00-00,0000-00-00,0,1110507
1110508,1110508,古山,,,11105,1,069-1216,夕張郡由仁町字古山,141.793969,42.975256,0000-00-00,0000-00-00,0,1110508
1110509,1110509,由仁,,,11105,1,069-1216,夕張郡由仁町古山,141.785868,43.012206,0000-00-00,0000-00-00,0,1110509
1110510,1110510,栗山,,,11105,1,069-1511,夕張郡栗山町中央３丁目,141.775603,43.058164,0000-00-00,0000-00-00,0,1110510
1110511,1110511,栗丘,,,11105,1,068-0134,岩見沢市栗沢町栗丘,141.744333,43.085444,0000-00-00,0000-00-00,0,1110511
1110512,1110512,栗沢,,,11105,1,068-0127,岩見沢市栗沢町本町,141.739743,43.120367,0000-00-00,0000-00-00,0,1110512
1110513,1110513,志文,,,11105,1,068-0841,岩見沢市志文本町１条４丁目,141.744443,43.158903,0000-00-00,0000-00-00,0,1110513
1110514,1110327,岩見沢,,,11105,1,068-0034,岩見沢市有明町南,141.759359,43.204201,0000-00-00,0000-00-00,0,1110514
1110601,1110335,滝川,,,11106,1,073-0031,滝川市栄町４丁目,141.900807,43.555278,0000-00-00,0000-00-00,0,1110601
1110602,1110602,東滝川,,,11106,1,073-0026,滝川市東滝川,141.98031,43.574037,0000-00-00,0000-00-00,0,1110602
1110603,1110603,赤平,,,11106,1,079-1134,赤平市泉町１丁目,142.048669,43.555144,0000-00-00,0000-00-00,0,1110603
1110604,1110604,茂尻,,,11106,1,079-1100,赤平市字茂尻町南２丁目,142.082156,43.537314,0000-00-00,0000-00-00,0,1110604
1110605,1110605,平岸,,,11106,1,079-1282,北海道赤平市平岸仲町１丁目,142.123872,43.541401,0000-00-00,0000-00-00,0,1110605
1110606,1110606,芦別,,,11106,1,075-0041,芦別市本町,142.184543,43.516636,0000-00-00,0000-00-00,0,1110606
1110607,1110607,上芦別,,,11106,1,079-1371,芦別市上芦別町,142.210855,43.48871,0000-00-00,0000-00-00,0,1110607
1110608,1110608,野花南,,,11106,1,079-1372,芦別市野花南町,142.261772,43.474418,0000-00-00,0000-00-00,0,1110608
1110609,1110609,島ノ下,,,11106,1,076-0036,富良野市字島ノ下,142.350406,43.3744,1913-11-10,2017-03-04,2,1110609
1110610,1110610,富良野,,,11106,1,076-0025,富良野市日の出町,142.391374,43.347114,0000-00-00,0000-00-00,0,1110610
1110611,1110611,布部,,,11106,1,076-0004,富良野市字布部市街地,142.400595,43.291991,0000-00-00,0000-00-00,0,1110611
1110612,1110612,山部,,,11106,1,079-1564,北海道富良野市字山部市山部中町,142.381522,43.244645,0000-00-00,0000-00-00,0,1110612
1110613,1110613,下金山,,,11106,1,079-2132,空知郡南富良野町字下金山,142.415402,43.197328,0000-00-00,0000-00-00,0,1110613
1110614,1110614,金山,,,11106,1,079-2131,空知郡南富良野町字金山,142.416201,43.136115,0000-00-00,0000-00-00,0,1110614
1110615,1110615,東鹿越,,,11106,1,079-2411,空知郡南富良野町東鹿越,142.523472,43.164011,0000-00-00,0000-00-00,0,1110615
1110616,1110616,幾寅,,,11106,1,079-2401,空知郡南富良野町幾寅仲町,142.569474,43.161582,0000-00-00,0000-00-00,0,1110616
1110617,1110617,落合,,,11106,1,079-2551,空知郡南富良野町落合,142.669104,43.125055,0000-00-00,0000-00-00,0,1110617
1110618,1110618,新得,,,11106,1,081-0005,上川郡新得町本通北１丁目,142.832432,43.082501,0000-00-00,0000-00-00,0,1110618
1110701,1110618,新得,,,11107,1,081-0005,上川郡新得町本通北１丁目,142.832432,43.082501,0000-00-00,0000-00-00,0,1110701
1110702,1110702,十勝清水,,,11107,1,089-0136,上川郡清水町本通１丁目,142.879535,43.012892,0000-00-00,0000-00-00,0,1110702
1110703,1110703,羽帯,,,11107,1,089-0356,上川郡清水町字羽帯,142.906646,42.957499,1958-09-10,2018-03-17,2,1110703
1110704,1110704,御影,,,11107,1,089-0354,上川郡清水町御影本通り１丁目,142.935739,42.942418,0000-00-00,0000-00-00,0,1110704
1110705,1110705,芽室,,,11107,1,082-0030,河西郡芽室町本通り１丁目,143.047991,42.909846,0000-00-00,0000-00-00,0,1110705
1110706,1110706,大成,,,11107,1,082-0006,河西郡芽室町東芽室南２線,143.0696659,42.91605619,0000-00-00,0000-00-00,0,1110706
1110707,1110707,西帯広,,,11107,1,080-2473,帯広市西２３条南１丁目,143.126351,42.923941,0000-00-00,0000-00-00,0,1110707
1110708,1110708,柏林台,,,11107,1,080-0027,帯広市西１７条南１丁目,143.1645,42.928877,0000-00-00,0000-00-00,0,1110708
1110709,1110709,帯広,,,11107,1,080-0012,帯広市西２条南１２丁目,143.20195,42.917997,0000-00-00,0000-00-00,0,1110709
1110710,1110710,札内,,,11107,1,089-0543,中川郡幕別町字札内中央町,143.256248,42.912697,0000-00-00,0000-00-00,0,1110710
1110711,1110711,稲士別,,,11107,1,089-0564,中川郡幕別町稲志別,143.297528,42.903963,1959-10-07,2017-03-04,2,1110711
1110712,1110712,幕別,,,11107,1,089-0604,中川郡幕別町錦町,143.359293,42.90784,0000-00-00,0000-00-00,0,1110712
1110713,1110713,利別,,,11107,1,083-0031,中川郡池田町字利別西町,143.424445,42.934706,0000-00-00,0000-00-00,0,1110713
1110714,1110714,池田,,,11107,1,083-0091,中川郡池田町東１条１丁目,143.453033,42.922186,0000-00-00,0000-00-00,0,1110714
1110715,1110715,十弗,,,11107,1,089-5243,中川郡豊頃町字十弗宝町,143.500797,42.855781,0000-00-00,0000-00-00,0,1110715
1110716,1110716,豊頃,,,11107,1,089-5232,中川郡豊頃町豊頃旭町,143.538615,42.817548,0000-00-00,0000-00-00,0,1110716
1110717,1110717,新吉野,,,11107,1,089-5541,十勝郡浦幌町字吉野,143.60826,42.778238,0000-00-00,0000-00-00,0,1110717
1110718,1110718,浦幌,,,11107,1,089-5603,十勝郡浦幌町字本町,143.651568,42.810849,0000-00-00,0000-00-00,0,1110718
1110719,1110719,上厚内,,,11107,1,089-5866,十勝郡浦幌町字上厚内,143.749788,42.831881,1910-12-01,2017-03-04,2,1110719
1110720,1110720,厚内,,,11107,1,089-5865,十勝郡浦幌町字厚内,143.814389,42.809539,0000-00-00,0000-00-00,0,1110720
1110721,1110721,直別,,,11107,1,088-0135,釧路市音別町直別,143.863607,42.852205,1907-10-25,2019-03-16,2,1110721
1110722,1110722,尺別,,,11107,1,088-0132,釧路市音別町尺別（岐線）,143.904331,42.869163,1920-01-22,2019-03-16,2,1110722
1110723,1110723,音別,,,11107,1,088-0115,釧路市音別町本町１丁目,143.932442,42.888997,0000-00-00,0000-00-00,0,1110723
1110724,1110724,古瀬,,,11107,1,088-0351,白糠郡白糠町和天別,144.008589,42.947893,1954-07-01,2020-03-14,2,1110724
1110725,1110725,白糠,,,11107,1,088-0301,白糠郡白糠町東１条南１丁目,144.076879,42.956161,0000-00-00,0000-00-00,0,1110725
1110726,1110726,西庶路,,,11107,1,088-0572,白糠郡白糠町西庶路西１条南３丁目,144.129826,42.976138,0000-00-00,0000-00-00,0,1110726
1110727,1110727,庶路,,,11107,1,088-0563,白糠郡白糠町庶路甲区,144.150018,42.983601,0000-00-00,0000-00-00,0,1110727
1110728,1110728,大楽毛,,,11107,1,084-0917,釧路市大楽毛５丁目,144.273879,43.009078,0000-00-00,0000-00-00,0,1110728
1110729,1110729,新大楽毛,,,11107,1,084-0917,釧路市大楽毛１丁目,144.295558,43.009423,0000-00-00,0000-00-00,0,1110729
1110730,1110730,新富士,,,11107,1,084-0904,釧路市新富士町３丁目,144.350758,43.001605,0000-00-00,0000-00-00,0,1110730
1110731,1110731,釧路,,,11107,1,085-0015,釧路市北大通１４丁目,144.381983,42.990584,0000-00-00,0000-00-00,0,1110731
1110801,1110731,釧路,,,11108,1,085-0015,釧路市北大通１４丁目,144.381983,42.990584,0000-00-00,0000-00-00,0,1110801
1110802,1110802,東釧路,,,11108,1,085-0816,釧路市貝塚２丁目,144.411307,42.995207,0000-00-00,0000-00-00,0,1110802
1110803,1110803,武佐,,,11108,1,085-0806,釧路市武佐４丁目,144.426681,42.991364,0000-00-00,0000-00-00,0,1110803
1110804,1110804,別保,,,11108,1,088-0604,釧路郡釧路町字別保,144.469596,42.994384,0000-00-00,0000-00-00,0,1110804
1110805,1110805,上尾幌,,,11108,1,088-0771,厚岸郡厚岸町字上尾幌市街,144.61239,43.032893,0000-00-00,0000-00-00,0,1110805
1110806,1110806,尾幌,,,11108,1,088-0875,厚岸郡厚岸町大字苫多村字尾幌,144.703758,43.018463,0000-00-00,0000-00-00,0,1110806
1110807,1110807,門静,,,11108,1,088-1126,厚岸郡厚岸町字門静,144.782638,43.057581,0000-00-00,0000-00-00,0,1110807
1110808,1110808,厚岸,,,11108,1,088-1124,厚岸郡厚岸町字宮園町,144.841355,43.056248,0000-00-00,0000-00-00,0,1110808
1110809,1110809,糸魚沢,,,11108,1,088-1101,厚岸郡厚岸町大字別寒辺牛村ベカンベウシ,144.92545,43.103506,1919-11-25,2022-03-12,2,1110809
1110810,1110810,茶内,,,11108,1,088-1500,厚岸郡浜中町大字琵琶瀬村字茶内市街,145.02801,43.129266,0000-00-00,0000-00-00,0,1110810
1110811,1110811,浜中,,,11108,1,088-1500,厚岸郡浜中町大字後静村字浜中市街,145.099657,43.15754,0000-00-00,0000-00-00,0,1110811
1110812,1110812,姉別,,,11108,1,088-1500,厚岸郡浜中町大字後静村字姉別市街,145.194716,43.196201,0000-00-00,0000-00-00,0,1110812
1110813,1110813,厚床,,,11108,1,086-0064,根室市厚床１丁目,145.252096,43.228224,0000-00-00,0000-00-00,0,1110813
1110814,1110814,初田牛,,,11108,1,086-0076,根室市初田牛,145.32277,43.204542,1920-11-10,2019-03-16,2,1110814
1110815,1110815,別当賀,,,11108,1,086-0075,根室市別当賀,145.423593,43.218427,0000-00-00,0000-00-00,0,1110815
1110816,1110816,落石,,,11108,1,088-1782,根室市落石東,145.519449,43.198335,0000-00-00,0000-00-00,0,1110816
1110817,1110817,昆布盛,,,11108,1,088-1784,根室市昆布盛,145.542444,43.228593,0000-00-00,0000-00-00,0,1110817
1110818,1110818,西和田,,,11108,1,087-0033,根室市西和田,145.541817,43.268043,0000-00-00,0000-00-00,0,1110818
1110819,1110819,花咲,,,11108,1,087-0032,根室市花咲港,145.575045,43.295388,1921-08-05,2016-03-26,2,1110819
1110820,1110820,東根室,,,11108,1,087-0004,根室市光洋町２丁目,145.597234,43.323655,0000-00-00,0000-00-00,0,1110820
1110821,1110821,根室,,,11108,1,087-0027,根室市光和町２丁目,145.582707,43.326923,0000-00-00,0000-00-00,0,1110821
1110901,1110434,苫小牧,,,11109,1,053-0022,苫小牧市表町６丁目,141.596837,42.639665,0000-00-00,0000-00-00,0,1110901
1110902,1110502,沼ノ端,,,11109,1,059-1364,苫小牧市字沼ノ端,141.693132,42.672057,0000-00-00,0000-00-00,0,1110902
1110903,1110903,植苗,,,11109,1,059-1365,苫小牧市字植苗,141.735344,42.713645,0000-00-00,0000-00-00,0,1110903
1110904,1110904,美々,,,11109,1,066-0012,千歳市美々,141.711387,42.777418,1926-08-21,2017-03-04,2,1110904
1110905,1110905,新千歳空港,,,11109,1,066-0012,千歳市美々,141.680823,42.787546,0000-00-00,0000-00-00,0,1110905
1110906,1110906,南千歳,,,11109,1,066-0044,千歳市字平和,141.675388,42.80804,0000-00-00,0000-00-00,0,1110906
1110907,1110907,千歳,,,11109,1,066-0062,千歳市千代田町７丁目,141.651934,42.82811,0000-00-00,0000-00-00,0,1110907
1110908,1110908,長都,,,11109,1,066-0077,千歳市上長都,141.622987,42.852178,0000-00-00,0000-00-00,0,1110908
1110909,1110909,サッポロビール庭園,,,11109,1,061-1405,恵庭市戸磯,141.605616,42.866812,0000-00-00,0000-00-00,0,1110909
1110910,1110910,恵庭,,,11109,1,061-1448,恵庭市相生町,141.586234,42.883076,0000-00-00,0000-00-00,0,1110910
1110911,1110911,恵み野,,,11109,1,061-1373,恵庭市恵み野西１丁目,141.574429,42.902704,0000-00-00,0000-00-00,0,1110911
1110912,1110912,島松,,,11109,1,061-1352,恵庭市島松仲町１丁目１-１,141.573117,42.922504,0000-00-00,0000-00-00,0,1110912
1110913,1110913,北広島,,,11109,1,061-1121,北広島市中央６丁目,141.563115,42.979239,0000-00-00,0000-00-00,0,1110913
1110914,1110914,上野幌,,,11109,1,004-0039,札幌市厚別区厚別町上野幌,141.487317,43.016177,0000-00-00,0000-00-00,0,1110914
1110915,1110915,新札幌,,,11109,1,004-0052,札幌市厚別区厚別中央二条５丁目,141.47237,43.038732,0000-00-00,0000-00-00,0,1110915
1110916,1110916,平和,,,11109,1,003-0029,札幌市白石区平和通１６丁目北,141.437967,43.04695,0000-00-00,0000-00-00,0,1110916
1110917,1110317,白石,,,11109,1,003-0029,札幌市白石区平和通3丁目北6,141.413612,43.054715,1903-04-21,0000-00-00,0,1110917
1110918,1110316,苗穂,,,11109,1,060-0033,札幌市中央区北３条東１３丁目,141.377522,43.068574,0000-00-00,0000-00-00,0,1110918
1110919,1110315,札幌,,,11109,1,060-0806,札幌市北区北６条西４丁目,141.350768,43.068612,0000-00-00,0000-00-00,0,1110919
1111001,1110906,南千歳,,,11110,1,066-0044,千歳市字平和,141.675388,42.80804,0000-00-00,0000-00-00,0,1111001
1111002,1110506,追分,,,11110,1,059-1931,勇払郡安平町追分中央,141.810678,42.873316,0000-00-00,0000-00-00,0,1111002
1111003,1111003,東追分,,,11110,1,059-1984,勇払郡安平町追分向陽,141.83228,42.902377,1965-03-01,2016-03-26,2,1111003
1111004,1111004,川端,,,11110,1,069-1141,夕張郡由仁町字川端,141.894791,42.914721,0000-00-00,0000-00-00,0,1111004
1111005,1111005,滝ノ上,,,11110,1,068-0756,夕張市滝ノ上,141.97628,42.910244,0000-00-00,0000-00-00,0,1111005
1111006,1111006,十三里,,,11110,1,068-0755,夕張市紅葉山,142.024478,42.914667,1962-12-25,2016-03-26,2,1111006
1111007,1111007,新夕張,,,11110,1,068-0755,夕張市紅葉山,142.03657,42.936611,0000-00-00,0000-00-00,0,1111007
1111008,1111008,沼ノ沢,,,11110,1,068-0751,夕張市沼ノ沢,142.030836,42.957586,0000-00-00,2019-04-01,2,1111008
1111009,1111009,南清水沢,,,11110,1,068-0536,夕張市南清水沢２丁目,142.006597,42.985272,0000-00-00,2019-04-01,2,1111009
1111010,1111010,清水沢,,,11110,1,068-0531,夕張市清水沢３丁目,142.007285,42.99827,0000-00-00,2019-04-01,2,1111010
1111011,1111011,鹿ノ谷,,,11110,1,068-0413,夕張市鹿の谷３丁目,141.964476,43.039447,0000-00-00,2019-04-01,2,1111011
1111012,1111012,夕張,,,11110,1,068-0411,夕張市末広１丁目,141.967472,43.050926,0000-00-00,2019-04-01,2,1111012
1111013,1111013,占冠,,,11110,1,079-2202,勇払郡占冠村占冠,142.400078,42.993088,0000-00-00,0000-00-00,0,1111013
1111014,1111014,トマム,,,11110,1,079-2204,勇払郡占冠村字中トマム,142.610937,43.055913,0000-00-00,0000-00-00,0,1111014
1111015,1110618,新得,,,11110,1,081-0005,上川郡新得町本通北１丁目,142.832432,43.082501,0000-00-00,0000-00-00,0,1111015
1111101,1110434,苫小牧,,,11111,1,053-0022,苫小牧市表町６丁目,141.596837,42.639665,0000-00-00,0000-00-00,0,1111101
1111102,1111102,勇払,,,11111,1,059-1372,苫小牧市字勇払,141.727667,42.632805,0000-00-00,0000-00-00,0,1111102
1111103,1111103,浜厚真,,,11111,1,059-1742,勇払郡厚真町字浜厚真,141.837071,42.606725,0000-00-00,0000-00-00,0,1111103
1111104,1111104,浜田浦,,,11111,1,054-0004,勇払郡むかわ町田浦,141.88362,42.590722,0000-00-00,2023-03-18,2,1111104
1111105,1111105,鵡川,,,11111,1,054-0023,勇払郡むかわ町末広２丁目,141.923892,42.578953,0000-00-00,0000-00-00,0,1111105
1111106,1111106,汐見,,,11111,1,054-0015,勇払郡むかわ町汐見,141.945255,42.550235,0000-00-00,2021-04-01,2,1111106
1111107,1111107,富川,,,11111,1,055-0006,沙流郡日高町富川南４丁目,142.020855,42.516865,0000-00-00,2021-04-01,2,1111107
1111108,1111108,日高門別,,,11111,1,059-2121,沙流郡日高町門別本町,142.072692,42.481237,0000-00-00,2021-04-01,2,1111108
1111109,1111109,豊郷,,,11111,1,059-2126,沙流郡日高町豊郷,142.122493,42.470119,0000-00-00,2021-04-01,2,1111109
1111110,1111110,清畠,,,11111,1,059-2245,沙流郡日高町清畠,142.176624,42.455709,0000-00-00,2021-04-01,2,1111110
1111111,1111111,厚賀,,,11111,1,059-2243,沙流郡日高町厚賀町,142.215896,42.430507,0000-00-00,2021-04-01,2,1111111
1111112,1111112,大狩部,,,11111,1,059-2253,新冠郡新冠町字大狩部,142.259355,42.395695,0000-00-00,2021-04-01,2,1111112
1111113,1111113,節婦,,,11111,1,059-2412,新冠郡新冠町字節婦町,142.275541,42.38248,0000-00-00,2021-04-01,2,1111113
1111114,1111114,新冠,,,11111,1,059-2400,新冠郡新冠町新冠字本町,142.312585,42.360667,0000-00-00,2021-04-01,2,1111114
1111115,1111115,静内,,,11111,1,056-0016,日高郡新ひだか町静内本町５丁目,142.360402,42.336559,0000-00-00,2021-04-01,2,1111115
1111116,1111116,静内海水浴場,,,11111,1,056-0011,北海道日高郡新ひだか町静内真歌,142.400665,42.314084,0000-00-00,0000-00-00,2,1111116
1111117,1111117,東静内,,,11111,1,059-2561,日高郡新ひだか町東静内,142.450485,42.304416,0000-00-00,2021-04-01,2,1111117
1111118,1111118,春立,,,11111,1,059-2565,日高郡新ひだか町静内春立,142.498943,42.268515,0000-00-00,2021-04-01,2,1111118
1111119,1111119,日高東別,,,11111,1,059-2566,日高郡新ひだか町静内東別,142.521371,42.280837,0000-00-00,2021-04-01,2,1111119
1111120,1111120,日高三石,,,11111,1,059-3107,日高郡新ひだか町三石旭町,142.566859,42.247269,0000-00-00,2021-04-01,2,1111120
1111121,1111121,蓬栄,,,11111,1,059-3104,日高郡新ひだか町三石蓬栄,142.604517,42.264636,0000-00-00,2021-04-01,2,1111121
1111122,1111122,本桐,,,11111,1,059-3231,日高郡新ひだか町三石本桐,142.630455,42.248205,0000-00-00,2021-04-01,2,1111122
1111123,1111123,荻伏,,,11111,1,059-3451,浦河郡浦河町荻伏町,142.689432,42.206136,0000-00-00,2021-04-01,2,1111123
1111124,1111124,絵笛,,,11111,1,057-0036,浦河郡浦河町絵笛,142.736134,42.198428,0000-00-00,2021-04-01,2,1111124
1111125,1111125,浦河,,,11111,1,057-0022,浦河郡浦河町昌平町,142.769976,42.168366,0000-00-00,2021-04-01,2,1111125
1111126,1111126,東町,,,11111,1,057-0005,浦河郡浦河町東町うしお１丁目,142.788931,42.156037,0000-00-00,2021-04-01,2,1111126
1111127,1111127,日高幌別,,,11111,1,057-0002,浦河郡浦河町字西幌別,142.834519,42.142338,0000-00-00,2021-04-01,2,1111127
1111128,1111128,鵜苫,,,11111,1,058-0033,様似郡様似町鵜苫,142.882513,42.134449,0000-00-00,2021-04-01,2,1111128
1111129,1111129,西様似,,,11111,1,058-0032,様似郡様似町西町,142.908737,42.138411,0000-00-00,2021-04-01,2,1111129
1111130,1111130,様似,,,11111,1,058-0014,様似郡様似町大通１丁目,142.93596,42.127936,0000-00-00,2021-04-01,2,1111130
1111201,1110315,札幌,,,11112,1,060-0806,札幌市北区北６条西４丁目,141.350768,43.068612,0000-00-00,0000-00-00,0,1111201
1111202,1110314,桑園,,,11112,1,060-0011,札幌市中央区北１１条西１５丁目,141.332036,43.070744,0000-00-00,0000-00-00,0,1111202
1111203,1111203,八軒,,,11112,1,063-0866,札幌市西区八軒６条東２丁目,141.319145,43.085845,0000-00-00,0000-00-00,0,1111203
1111204,1111204,新川,,,11112,1,001-0924,札幌市北区新川四条１丁目,141.323824,43.098604,0000-00-00,0000-00-00,0,1111204
1111205,1111205,新琴似,,,11112,1,001-0908,札幌市北区新琴似８条１丁目,141.335105,43.112928,0000-00-00,0000-00-00,0,1111205
1111206,1111206,太平,,,11112,1,002-8002,札幌市北区太平２条５丁目,141.349526,43.12401,0000-00-00,0000-00-00,0,1111206
1111207,1111207,百合が原,,,11112,1,002-8051,札幌市北区篠路町太平中央,141.360672,43.131476,0000-00-00,0000-00-00,0,1111207
1111208,1111208,篠路,,,11112,1,002-8024,札幌市北区篠路４条７丁目,141.364323,43.145152,0000-00-00,0000-00-00,0,1111208
1111209,1111209,拓北,,,11112,1,002-8066,札幌市北区拓北６条３丁目,141.381013,43.155568,0000-00-00,0000-00-00,0,1111209
1111210,1111210,あいの里教育大,,,11112,1,002-8071,札幌市北区あいの里１条５丁目,141.39842,43.15528,0000-00-00,0000-00-00,0,1111210
1111211,1111211,あいの里公園,,,11112,1,002-8072,札幌市北区あいの里２条８丁目,141.413276,43.161206,0000-00-00,0000-00-00,0,1111211
1111231,1111231,ロイズタウン,,,11112,1,061-3773,北海道石狩郡当別町当別太1225番地9,141.436236,43.179589,2022-03-12,0000-00-00,0,1111211
1111212,1111212,太美,,,11112,1,061-3776,石狩郡当別町太美町,141.449066,43.189801,0000-00-00,0000-00-00,0,1111212
1111213,1111213,当別,,,11112,1,061-0226,石狩郡当別町字錦町,141.513764,43.22208,0000-00-00,0000-00-00,0,1111213
1111214,1111214,北海道医療大学,,,11112,1,061-0212,石狩郡当別町字金沢,141.54995,43.230925,0000-00-00,0000-00-00,0,1111214
1111215,1111215,石狩金沢,,,11112,1,061-0212,石狩郡当別町字金沢,141.569239,43.245385,0000-00-00,2020-04-01,2,1111215
1111216,1111216,本中小屋,,,11112,1,061-0211,石狩郡当別町字中小屋,141.591661,43.28019,0000-00-00,2020-04-01,2,1111216
1111217,1111217,中小屋,,,11112,1,061-0211,石狩郡当別町字中小屋,141.602341,43.306846,0000-00-00,2020-04-01,2,1111217
1111218,1111218,月ケ岡,,,11112,1,061-0500,北海道樺戸郡月形町字月ヶ岡,141.61807,43.324867,0000-00-00,2020-04-01,2,1111218
1111219,1111219,知来乙,,,11112,1,061-0516,樺戸郡月形町字知来乙,141.649123,43.331545,0000-00-00,2020-04-01,2,1111219
1111220,1111220,石狩月形,,,11112,1,061-0518,樺戸郡月形町赤川,141.670193,43.340869,0000-00-00,2020-04-01,2,1111220
1111221,1111221,豊ケ岡,,,11112,1,061-0500,北海道樺戸郡月形町字豊ケ丘,141.714026,43.366645,0000-00-00,2020-04-01,2,1111221
1111222,1111222,札比内,,,11112,1,061-0505,樺戸郡月形町字札比内,141.742762,43.370926,0000-00-00,2020-04-01,2,1111222
1111223,1111223,晩生内,,,11112,1,061-0622,樺戸郡浦臼町字晩生内第２,141.779211,43.399921,0000-00-00,2020-04-01,2,1111223
1111224,1111224,札的,,,11112,1,061-0600,樺戸郡浦臼町字浦臼内,141.803549,43.419153,0000-00-00,2020-04-01,2,1111224
1111225,1111225,浦臼,,,11112,1,061-0600,樺戸郡浦臼町字浦臼内,141.817376,43.430964,0000-00-00,2020-04-01,2,1111225
1111226,1111226,鶴沼,,,11112,1,061-0600,樺戸郡浦臼町字於礼内,141.840637,43.457673,0000-00-00,2020-04-01,2,1111226
1111227,1111227,於札内,,,11112,1,061-0600,樺戸郡浦臼町字オサツナイ,141.840102,43.473424,0000-00-00,2020-04-01,2,1111227
1111228,1111228,南下徳富,,,11112,1,073-1105,樺戸郡新十津川町字花月,141.844454,43.485542,0000-00-00,2020-04-01,2,1111228
1111229,1111229,下徳富,,,11112,1,073-1105,樺戸郡新十津川町字花月,141.855574,43.50271,0000-00-00,2020-04-01,2,1111229
1111230,1111230,新十津川,,,11112,1,073-1103,樺戸郡新十津川町字中央,141.874172,43.545575,0000-00-00,2020-04-01,2,1111230
1111301,1110338,深川,,,11113,1,074-0001,深川市１条,142.041642,43.721021,0000-00-00,0000-00-00,0,1111301
1111302,1111302,北一已,,,11113,1,074-0028,深川市一已町一已,142.014721,43.742021,0000-00-00,0000-00-00,0,1111302
1111303,1111303,秩父別,,,11113,1,078-2100,雨竜郡秩父別町２６区,141.967757,43.769099,0000-00-00,0000-00-00,0,1111303
1111304,1111304,北秩父別,,,11113,1,078-2106,雨竜郡秩父別町６条１丁目,141.960915,43.789375,0000-00-00,0000-00-00,0,1111304
1111305,1111305,石狩沼田,,,11113,1,078-2222,雨竜郡沼田町沼田,141.934266,43.810032,0000-00-00,0000-00-00,0,1111305
1111306,1111306,真布,,,11113,1,078-2221,雨竜郡沼田町字真布,141.906756,43.832965,0000-00-00,2023-04-01,2,1111306
1111307,1111307,恵比島,,,11113,1,078-2224,雨竜郡沼田町字恵比島,141.88144,43.851296,0000-00-00,2023-04-01,2,1111307
1111308,1111308,峠下,,,11113,1,078-3161,留萌市留萌村峠下,141.818879,43.850789,0000-00-00,2023-04-01,2,1111308
1111309,1111309,幌糠,,,11113,1,078-3168,留萌市幌糠町幌糠,141.758418,43.855521,0000-00-00,2023-04-01,2,1111309
1111310,1111310,藤山,,,11113,1,078-3165,留萌市藤山町藤山,141.720588,43.88708,0000-00-00,2023-04-01,2,1111310
1111311,1111311,大和田,,,11113,1,077-0012,留萌市大和田,141.696528,43.913418,0000-00-00,2023-04-01,2,1111311
1111312,1111312,留萌,,,11113,1,077-0005,留萌市船場町２丁目,141.651433,43.942848,0000-00-00,2023-04-01,2,1111312
1111313,1111313,瀬越,,,11113,1,077-0047,留萌市瀬越町,141.634535,43.934987,1926-07-01,2016-12-05,2,1111313
1111314,1111314,浜中海水浴場,,,11113,1,077-0036,北海道留萌市浜中町,141.632835,43.930354,1989-07-23,1995-08-08,2,1111314
1111315,1111315,礼受,,,11113,1,077-0035,留萌市礼受町,141.611358,43.904871,1921-11-05,2016-12-05,2,1111315
1111316,1111316,阿分,,,11113,1,077-0200,増毛郡増毛町大字阿分村,141.605598,43.894339,1963-12-01,2016-12-05,2,1111316
1111317,1111317,信砂,,,11113,1,077-0200,増毛郡増毛町大字舎熊村字信砂,141.589039,43.874479,1963-12-01,2016-12-05,2,1111317
1111318,1111318,舎熊,,,11113,1,077-0200,増毛郡増毛町大字舎熊村字舎熊,141.580068,43.869113,1921-11-05,2016-12-05,2,1111318
1111319,1111319,朱文別,,,11113,1,077-0200,増毛郡増毛町大字朱文別,141.564328,43.860678,1963-12-01,2016-12-05,2,1111319
1111320,1111320,箸別,,,11113,1,077-0200,増毛郡増毛町増毛村大字箸別,141.55164,43.859125,1963-12-01,2016-12-05,2,1111320
1111321,1111321,増毛,,,11113,1,077-0205,増毛郡増毛町弁天町１丁目,141.527559,43.856522,1921-11-05,2016-12-05,2,1111321
1111401,1110342,旭川,,,11114,1,070-0030,旭川市宮下通８丁目,142.357803,43.763492,0000-00-00,0000-00-00,0,1111401
1111402,1111402,神楽岡,,,11114,1,078-8314,旭川市神楽岡４条１４丁目,142.358257,43.745033,0000-00-00,0000-00-00,0,1111402
1111403,1111403,緑が丘,,,11114,1,078-8323,旭川市神楽岡１３条９丁目,142.365701,43.731074,0000-00-00,0000-00-00,0,1111403
1111404,1111404,西御料,,,11114,1,078-8381,旭川市西神楽一線５号,142.371507,43.720834,0000-00-00,0000-00-00,0,1111404
1111405,1111405,西瑞穂,,,11114,1,078-8381,旭川市西神楽一線９号,142.381982,43.70242,0000-00-00,0000-00-00,0,1111405
1111406,1111406,西神楽,,,11114,1,071-0171,旭川市西神楽南１条１丁目,142.393677,43.682181,0000-00-00,0000-00-00,0,1111406
1111407,1111407,西聖和,,,11114,1,078-8382,旭川市西神楽二線１７号,142.415209,43.669047,0000-00-00,0000-00-00,0,1111407
1111408,1111408,千代ケ岡,,,11114,1,078-8381,北海道旭川市西神楽1線24号,142.451024,43.643737,0000-00-00,0000-00-00,0,1111408
1111409,1111409,北美瑛,,,11114,1,071-0226,上川郡美瑛町字下宇莫別,142.479594,43.617884,0000-00-00,0000-00-00,0,1111409
1111410,1111410,美瑛,,,11114,1,071-0208,上川郡美瑛町本町１丁目,142.461639,43.591186,0000-00-00,0000-00-00,0,1111410
1111411,1111411,美馬牛,,,11114,1,071-0471,上川郡美瑛町字美馬牛,142.447192,43.537408,0000-00-00,0000-00-00,0,1111411
1111412,1111412,上富良野,,,11114,1,071-0543,空知郡上富良野町中町１丁目,142.468761,43.464046,0000-00-00,0000-00-00,0,1111412
1111413,1111413,西中,,,11114,1,071-0704,空知郡中富良野町基線北１８号,142.441876,43.429569,0000-00-00,0000-00-00,0,1111413
1111414,1111414,ラベンダー畑,,,11114,1,071-0704,空知郡中富良野町基線北１５号,142.434032,43.42065,0000-00-00,0000-00-00,0,1111414
1111415,1111415,中富良野,,,11114,1,071-0700,空知郡中富良野町市街地,142.420812,43.405704,0000-00-00,0000-00-00,0,1111415
1111416,1111416,鹿討,,,11114,1,071-0700,空知郡中富良野町字富良野基線北８号,142.404812,43.387499,0000-00-00,0000-00-00,0,1111416
1111417,1111417,学田,,,11114,1,076-0047,富良野市字西学田二区,142.386118,43.366234,0000-00-00,0000-00-00,0,1111417
1111418,1110610,富良野,,,11114,1,076-0025,富良野市日の出町,142.391374,43.347114,0000-00-00,0000-00-00,0,1111418
1111501,1110342,旭川,,,11115,1,070-0030,旭川市宮下通８丁目,142.357803,43.763492,0000-00-00,0000-00-00,0,1111501
1111502,1111502,旭川四条,,,11115,1,078-8214,旭川市四条通１８丁目,142.375815,43.764056,0000-00-00,0000-00-00,0,1111502
1111503,1111503,新旭川,,,11115,1,070-0028,旭川市東八条６丁目,142.384789,43.780174,0000-00-00,0000-00-00,0,1111503
1111504,1111504,永山,,,11115,1,079-8411,旭川市永山１条１９丁目,142.434382,43.814158,0000-00-00,0000-00-00,0,1111504
1111505,1111505,北永山,,,11115,1,079-8431,旭川市永山町１５丁目,142.454493,43.826736,0000-00-00,0000-00-00,0,1111505
1111506,1111506,南比布,,,11115,1,078-0311,上川郡比布町南１線５号,142.467271,43.853342,1955-12-02,2021-03-13,2,1111506
1111507,1111507,比布,,,11115,1,078-0341,上川郡比布町市街地,142.471294,43.874478,0000-00-00,0000-00-00,0,1111507
1111508,1111508,北比布,,,11115,1,078-0325,上川郡比布町北５線１０号,142.476545,43.901728,1955-12-02,2021-03-13,2,1111508
1111509,1111509,蘭留,,,11115,1,078-0329,上川郡比布町北９線１４号,142.473699,43.925072,0000-00-00,0000-00-00,0,1111509
1111510,1111510,塩狩,,,11115,1,098-0125,上川郡和寒町塩狩,142.4552,43.96794,0000-00-00,0000-00-00,0,1111510
1111511,1111511,和寒,,,11115,1,098-0133,上川郡和寒町北町,142.415309,44.026932,0000-00-00,0000-00-00,0,1111511
1111512,1111512,東六線,,,11115,1,098-0300,上川郡剣淵町第１０区,142.388073,44.068723,0000-00-00,2021-03-13,2,1111512
1111513,1111513,剣淵,,,11115,1,098-0300,上川郡剣淵町栄町,142.364754,44.09643,0000-00-00,0000-00-00,0,1111513
1111514,1111514,北剣淵,,,11115,1,098-0300,上川郡剣淵町第１３区,142.377955,44.139423,1959-11-01,2021-03-13,2,1111514
1111515,1111515,士別,,,11115,1,095-0023,士別市西３条８丁目,142.388247,44.172536,0000-00-00,0000-00-00,0,1111515
1111516,1111516,下士別,,,11115,1,095-0061,士別市下士別町,142.396405,44.210583,1955-12-02,2021-03-13,2,1111516
1111517,1111517,多寄,,,11115,1,098-0475,士別市多寄町３６線東,142.396315,44.241296,0000-00-00,0000-00-00,0,1111517
1111518,1111518,瑞穂,,,11115,1,098-0475,士別市多寄町３１線東,142.396244,44.266349,0000-00-00,0000-00-00,0,1111518
1111519,1111519,風連,,,11115,1,098-0504,名寄市風連町本町,142.421624,44.292238,0000-00-00,0000-00-00,0,1111519
1111520,1111520,名寄高校,,,11115,1,098-0512,名寄市風連町東風連,142.46548195769,44.330938813348,0000-00-00,0000-00-00,0,1111520
1111521,1111521,名寄,,,11115,1,096-0001,名寄市東１条南６丁目,142.465207,44.349403,0000-00-00,0000-00-00,0,1111521
1111522,1111522,日進,,,11115,1,096-0066,名寄市字日進,142.467354,44.381713,0000-00-00,0000-00-00,0,1111522
1111523,1111523,北星,,,11115,1,098-2181,名寄市智恵文北星,142.428116,44.441569,1959-11-01,2021-03-13,2,1111523
1111524,1111524,智恵文,,,11115,1,098-2181,名寄市智恵文１１線,142.414772,44.455553,0000-00-00,0000-00-00,0,1111524
1111525,1111525,智北,,,11115,1,098-2181,名寄市字智恵文,142.394007,44.46103,0000-00-00,0000-00-00,0,1111525
1111526,1111526,南美深,,,11115,1,098-2205,中川郡美深町字美深,142.367822,44.462604,1956-07-01,2021-03-13,2,1111526
1111527,1111527,美深,,,11115,1,098-2238,中川郡美深町字開運町,142.350597,44.482951,0000-00-00,0000-00-00,0,1111527
1111528,1111528,初野,,,11115,1,098-2211,中川郡美深町字富岡,142.336129,44.512808,0000-00-00,0000-00-00,0,1111528
1111529,1111529,紋穂内,,,11115,1,098-2366,中川郡美深町字紋穂内,142.33357,44.538761,1911-11-03,2021-03-13,2,1111529
1111530,1111530,恩根内,,,11115,1,098-2361,中川郡美深町字恩根内,142.309447,44.598486,0000-00-00,0000-00-00,0,1111530
1111531,1111531,豊清水,,,11115,1,098-2368,中川郡美深町字清水,142.270342,44.639503,1946-10-10,2021-03-13,2,1111531
1111532,1111532,天塩川温泉,,,11115,1,098-2502,中川郡音威子府村字咲来,142.258682,44.665041,0000-00-00,0000-00-00,0,1111532
1111533,1111533,咲来,,,11115,1,098-2502,中川郡音威子府村字咲来,142.267569,44.692702,0000-00-00,0000-00-00,0,1111533
1111534,1111534,音威子府,,,11115,1,098-2501,中川郡音威子府村字音威子府,142.259883,44.729448,0000-00-00,0000-00-00,0,1111534
1111535,1111535,筬島,,,11115,1,098-2500,中川郡音威子府村字物満内,142.197777,44.738883,0000-00-00,0000-00-00,0,1111535
1111536,1111536,佐久,,,11115,1,098-2622,中川郡中川町字佐久,142.048562,44.743986,0000-00-00,0000-00-00,0,1111536
1111537,1111537,天塩中川,,,11115,1,098-2802,中川郡中川町字中川,142.075335,44.81186,0000-00-00,0000-00-00,0,1111537
1111538,1111538,歌内,,,11115,1,098-2801,中川郡中川町字歌内,142.052162,44.880493,1923-11-10,2022-03-12,2,1111538
1111539,1111539,問寒別,,,11115,1,098-2943,天塩郡幌延町字問寒別,142.025562,44.91233,0000-00-00,0000-00-00,0,1111539
1111540,1111540,糠南,,,11115,1,098-3200,天塩郡幌延町字糠南,142.000931,44.920778,0000-00-00,0000-00-00,0,1111540
1111541,1111541,雄信内,,,11115,1,098-3251,天塩郡幌延町字雄興,141.935888,44.911735,0000-00-00,0000-00-00,0,1111541
1111542,1111542,安牛,,,11115,1,098-3226,天塩郡幌延町字開進,141.894187,44.949809,1925-07-20,2021-03-13,2,1111542
1111543,1111543,南幌延,,,11115,1,098-3200,天塩郡幌延町字南幌延,141.884892,44.965084,0000-00-00,0000-00-00,0,1111543
1111544,1111544,上幌延,,,11115,1,098-3225,天塩郡幌延町字上幌延,141.880905,44.985787,1925-07-20,2021-03-13,2,1111544
1111545,1111545,幌延,,,11115,1,098-3211,天塩郡幌延町１条南１丁目,141.84569,45.014503,0000-00-00,0000-00-00,0,1111545
1111546,1111546,下沼,,,11115,1,098-3228,天塩郡幌延町字下沼,141.758218,45.037146,0000-00-00,0000-00-00,0,1111546
1111547,1111547,豊富,,,11115,1,098-4100,天塩郡豊富町字上サロベツ,141.772088,45.104624,0000-00-00,0000-00-00,0,1111547
1111548,1111548,徳満,,,11115,1,098-4137,天塩郡豊富町字徳満,141.751039,45.145838,1926-09-25,2021-03-13,2,1111548
1111549,1111549,兜沼,,,11115,1,098-4451,天塩郡豊富町字兜沼,141.6972,45.220236,0000-00-00,0000-00-00,0,1111549
1111550,1111550,勇知,,,11115,1,098-4581,稚内市字抜海村上勇知,141.685151,45.259339,0000-00-00,0000-00-00,0,1111550
1111551,1111551,抜海,,,11115,1,097-0036,稚内市字抜海村クトネベツ,141.644576,45.316866,0000-00-00,0000-00-00,0,1111551
1111552,1111552,南稚内,,,11115,1,097-0005,稚内市大黒１丁目,141.683026,45.398166,0000-00-00,0000-00-00,0,1111552
1111553,1111553,稚内,,,11115,1,097-0022,稚内市中央３丁目,141.676999,45.416995,0000-00-00,0000-00-00,0,1111553
1111601,1110342,旭川,,,11116,1,070-0030,旭川市宮下通８丁目,142.357803,43.763492,0000-00-00,0000-00-00,0,1111601
1111602,1111502,旭川四条,,,11116,1,078-8214,旭川市四条通１８丁目,142.375815,43.764056,0000-00-00,0000-00-00,0,1111602
1111603,1111503,新旭川,,,11116,1,070-0028,旭川市東八条６丁目,142.384789,43.780174,0000-00-00,0000-00-00,0,1111603
1111604,1111604,南永山,,,11116,1,079-8420,旭川市永山十条３丁目,142.40853,43.78055,0000-00-00,0000-00-00,0,1111604
1111605,1111605,東旭川,,,11116,1,078-8253,旭川市東旭川北三条５丁目,142.441544,43.776571,0000-00-00,0000-00-00,0,1111605
1111606,1111606,北日ノ出,,,11116,1,078-8203,旭川市東旭川町日ノ出,142.466127,43.781813,1960-05-02,2021-03-13,2,1111606
1111607,1111607,桜岡,,,11116,1,078-8204,旭川市東旭川町桜岡,142.486968,43.801812,0000-00-00,0000-00-00,0,1111607
1111608,1111608,当麻,,,11116,1,078-1300,上川郡当麻町市街,142.516987,43.825477,0000-00-00,0000-00-00,0,1111608
1111609,1111609,将軍山,,,11116,1,078-1334,上川郡当麻町北星２区,142.521559,43.857455,1960-05-02,2021-03-13,2,1111609
1111610,1111610,伊香牛,,,11116,1,078-1333,上川郡当麻町伊香牛,142.525227,43.876025,0000-00-00,0000-00-00,0,1111610
1111611,1111611,愛別,,,11116,1,078-1401,上川郡愛別町字愛別,142.582176,43.898635,0000-00-00,0000-00-00,0,1111611
1111612,1111612,中愛別,,,11116,1,078-1652,上川郡愛別町字中央,142.655424,43.896216,0000-00-00,0000-00-00,0,1111612
1111613,1111613,愛山,,,11116,1,078-1653,上川郡愛別町字愛山,142.680699,43.866442,0000-00-00,0000-00-00,0,1111613
1111614,1111614,安足間,,,11116,1,078-1653,上川郡愛別町字愛山,142.693868,43.852011,0000-00-00,0000-00-00,0,1111614
1111615,1111615,東雲,,,11116,1,078-1731,上川郡上川町東雲,142.716544,43.843693,1960-05-02,2021-03-13,2,1111615
1111616,1111616,上川,,,11116,1,078-1741,上川郡上川町中央町,142.766895,43.848508,0000-00-00,0000-00-00,0,1111616
1111617,1111617,上白滝,,,11116,1,099-0127,紋別郡遠軽町上白滝,143.1444,43.876501,1932-10-01,2016-03-26,2,1111617
1111618,1111618,白滝,,,11116,1,099-0111,紋別郡遠軽町白滝,143.180795,43.884435,0000-00-00,0000-00-00,0,1111618
1111619,1111619,旧白滝,,,11116,1,099-0102,紋別郡遠軽町旧白滝,143.236729,43.919905,1947-02-11,2016-03-26,2,1111619
1111620,1111620,下白滝,,,11116,1,099-0101,紋別郡遠軽町下白滝,143.276088,43.944553,1929-08-12,2016-03-26,2,1111620
1111621,1111621,丸瀬布,,,11116,1,099-0203,紋別郡遠軽町丸瀬布中町,143.335817,44.006354,0000-00-00,0000-00-00,0,1111621
1111622,1111622,瀬戸瀬,,,11116,1,099-0342,紋別郡遠軽町字瀬戸瀬西町,143.420937,44.008753,0000-00-00,0000-00-00,0,1111622
1111623,1111623,遠軽,,,11116,1,099-0415,紋別郡遠軽町岩見通南１丁目,143.520667,44.060278,0000-00-00,0000-00-00,0,1111623
1111624,1111624,安国,,,11116,1,099-0622,紋別郡遠軽町生田原安国,143.535762,43.993322,0000-00-00,0000-00-00,0,1111624
1111625,1111625,生野,,,11116,1,099-0701,紋別郡遠軽町生田原,143.532945,43.959928,1946-12-01,2021-03-13,2,1111625
1111626,1111626,生田原,,,11116,1,099-0701,紋別郡遠軽町生田原,143.534627,43.923674,0000-00-00,0000-00-00,0,1111626
1111627,1111627,金華,,,11116,1,091-0021,北見市留辺蘂町金華,143.57114,43.803484,1914-10-05,2016-03-26,2,1111627
1111628,1111628,西留辺蘂,,,11116,1,091-0027,北見市留辺蘂町旭西３３４番地の１,143.603257,43.785345,0000-00-00,0000-00-00,0,1111628
1111629,1111629,留辺蘂,,,11116,1,091-0002,北見市留辺蘂町東町,143.621394,43.785534,0000-00-00,0000-00-00,0,1111629
1111630,1111630,相内,,,11116,1,099-0871,北見市相内町,143.756449,43.795948,0000-00-00,0000-00-00,0,1111630
1111631,1111631,東相内,,,11116,1,099-0878,北見市東相内町,143.809499,43.805466,0000-00-00,0000-00-00,0,1111631
1111632,1111632,西北見,,,11116,1,090-0055,北見市緑町６丁目,143.841586,43.803114,0000-00-00,0000-00-00,0,1111632
1111633,1111633,北見,,,11116,1,090-0040,北見市大通西１丁目,143.898167,43.805504,0000-00-00,0000-00-00,0,1111633
1111634,1111634,柏陽,,,11116,1,090-0012,北見市並木町,143.916737,43.824911,0000-00-00,0000-00-00,0,1111634
1111635,1111635,愛し野,,,11116,1,099-2103,北見市端野町三区,143.932962,43.841426,0000-00-00,0000-00-00,0,1111635
1111636,1111636,端野,,,11116,1,099-2104,北見市端野町端野,143.942336,43.851172,0000-00-00,0000-00-00,0,1111636
1111637,1111637,緋牛内,,,11116,1,099-2231,北見市端野町緋牛内,143.999887,43.880431,0000-00-00,0000-00-00,0,1111637
1111638,1111638,美幌,,,11116,1,092-0015,網走郡美幌町字新町３丁目,144.10563,43.836967,0000-00-00,0000-00-00,0,1111638
1111639,1111639,西女満別,,,11116,1,099-2301,網走郡大空町女満別本郷,144.148372,43.880057,0000-00-00,0000-00-00,0,1111639
1111640,1111640,女満別,,,11116,1,099-2310,網走郡大空町女満別本通１丁目,144.170665,43.915886,0000-00-00,0000-00-00,0,1111640
1111641,1111641,呼人,,,11116,1,099-2421,網走市呼人,144.218945,43.963695,0000-00-00,0000-00-00,0,1111641
1111642,1111642,網走,,,11116,1,093-0046,網走市新町２丁目,144.254156,44.019873,0000-00-00,0000-00-00,0,1111642
1111701,1111642,網走,,,11117,1,093-0046,網走市新町２丁目,144.254156,44.019873,0000-00-00,0000-00-00,0,1111701
1111702,1111702,桂台,,,11117,1,093-0031,網走市台町１丁目,144.273223,44.016913,0000-00-00,0000-00-00,0,1111702
1111703,1111703,鱒浦,,,11117,1,099-3119,網走市字鱒浦,144.296526,43.982481,0000-00-00,0000-00-00,0,1111703
1111704,1111704,藻琴,,,11117,1,099-3111,網走市字藻琴,144.320079,43.968358,0000-00-00,0000-00-00,0,1111704
1111705,1111705,北浜,,,11117,1,099-3112,網走市字北浜,144.352541,43.958549,0000-00-00,0000-00-00,0,1111705
1111706,1111706,原生花園,,,11117,1,099-3452,斜里郡小清水町浜小清水,144.41443,43.941033,0000-00-00,0000-00-00,0,1111706
1111707,1111707,浜小清水,,,11117,1,099-3452,斜里郡小清水町字浜小清水,144.453187,43.934077,0000-00-00,0000-00-00,0,1111707
1111708,1111708,止別,,,11117,1,099-3454,斜里郡小清水町字止別,144.519818,43.921558,0000-00-00,0000-00-00,0,1111708
1111709,1111709,知床斜里,,,11117,1,099-4112,斜里郡斜里町港町,144.661647,43.910749,0000-00-00,0000-00-00,0,1111709
1111710,1111710,中斜里,,,11117,1,099-4142,斜里郡斜里町字中斜里,144.659033,43.874608,0000-00-00,0000-00-00,0,1111710
1111711,1111711,南斜里,,,11117,1,099-4143,斜里郡斜里町字川上,144.63431,43.867531,1962-10-01,2021-03-13,2,1111711
1111712,1111712,清里町,,,11117,1,099-4406,斜里郡清里町水元町,144.593948,43.83871,0000-00-00,0000-00-00,0,1111712
1111713,1111713,札弦,,,11117,1,099-4521,斜里郡清里町札弦町,144.531526,43.786574,0000-00-00,0000-00-00,0,1111713
1111714,1111714,緑,,,11117,1,099-4525,斜里郡清里町緑町,144.505499,43.718282,0000-00-00,0000-00-00,0,1111714
1111715,1111715,川湯温泉,,,11117,1,088-3462,川上郡弟子屈町字川湯駅前,144.457749,43.616258,0000-00-00,0000-00-00,0,1111715
1111716,1111716,美留和,,,11117,1,088-3331,川上郡弟子屈町字美留和,144.437656,43.555316,0000-00-00,0000-00-00,0,1111716
1111717,1111717,摩周,,,11117,1,088-3204,川上郡弟子屈町字朝日１丁目,144.463981,43.487373,0000-00-00,0000-00-00,0,1111717
1111718,1111718,南弟子屈,,,11117,1,088-3200,川上郡弟子屈町字熊牛原野,144.514729,43.428656,1929-08-15,2020-03-14,2,1111718
1111719,1111719,磯分内,,,11117,1,088-2300,川上郡標茶町字熊牛原野,144.554322,43.379389,0000-00-00,0000-00-00,0,1111719
1111720,1111720,標茶,,,11117,1,088-2314,川上郡標茶町字標茶,144.608434,43.298472,0000-00-00,0000-00-00,0,1111720
1111721,1111721,五十石,,,11117,1,088-2331,川上郡標茶町オソツベツ原野,144.545558,43.238771,1927-09-15,2017-03-04,2,1111721
1111722,1111722,茅沼,,,11117,1,088-2265,川上郡標茶町シラルトロエトロ,144.503788,43.202097,0000-00-00,0000-00-00,0,1111722
1111723,1111723,塘路,,,11117,1,088-2261,川上郡標茶町字塘路,144.496817,43.151739,0000-00-00,0000-00-00,0,1111723
1111724,1111724,細岡,,,11117,1,088-2148,釧路郡釧路町字鳥通牛原野,144.469683,43.105055,0000-00-00,0000-00-00,0,1111724
1111725,1111725,釧路湿原,,,11117,1,088-2148,釧路郡釧路町鳥通原野,144.447799,43.100647,0000-00-00,0000-00-00,0,1111725
1111726,1111726,遠矢,,,11117,1,088-2145,釧路郡釧路町字遠矢,144.458367,43.047878,0000-00-00,0000-00-00,0,1111726
1111727,1110802,東釧路,,,11117,1,085-0816,釧路市貝塚２丁目,144.411307,42.995207,0000-00-00,0000-00-00,0,1111727
1111728,1110731,釧路,,,11117,1,085-0015,釧路市北大通１４丁目,144.381983,42.990584,0000-00-00,0000-00-00,0,1111728
1111801,1111801,中小国,,,11118,2,030-1305,東津軽郡外ヶ浜町蟹田小国,140.596798,41.051702,0000-00-00,0000-00-00,0,1111801
1111802,1111802,奥津軽いまべつ,,,11118,2,030-1505,東津軽郡今別町大字大川平字清川91-1,140.515444,41.145083,0000-00-00,0000-00-00,0,1111802
1111803,1111803,竜飛海底,,,11118,2,030-1400,東津軽郡外ヶ浜町三厩宇鉄立浜,140.347946,41.257228,1988-03-13,2014-03-14,2,1111803
1111804,1111804,吉岡海底,,,11118,1,049-1454,松前郡福島町館崎,140.239354,41.442162,1988-03-13,2014-03-14,2,1111804
1111805,1111805,知内,,,11118,1,049-1221,上磯郡知内町湯ノ里,140.33494,41.601092,1990-07-01,2014-03-14,2,1111805
1111806,1111806,木古内,,,11118,1,049-0422,上磯郡木古内町本町,140.434004,41.677642,1930-10-25,0000-00-00,0,1111806
1111901,1111901,江差,,,11119,1,043-0056,檜山郡江差町字陣屋町,140.127933,41.856727,1936-11-10,2014-05-12,2,1111901
1111902,1111902,上ノ国,,,11119,1,049-0611,檜山郡上ノ国町字大留,140.124106,41.805567,1936-11-10,2014-05-12,2,1111902
1111903,1111903,中須田,,,11119,1,049-0624,檜山郡上ノ国町字中須田,140.149321,41.787214,0000-00-00,2014-05-12,2,1111903
1111904,1111904,桂岡,,,11119,1,049-0626,檜山郡上ノ国町字桂岡,140.166071,41.773096,1936-11-10,2014-05-12,2,1111904
1111905,1111905,宮越,,,11119,1,049-0564,檜山郡上ノ国町字早瀬,140.184998,41.762404,1964-12-30,2014-05-12,2,1111905
1111906,1111906,湯ノ岱,,,11119,1,049-0562,檜山郡上ノ国町字湯ノ岱,140.243698,41.750312,1935-12-10,2014-05-12,2,1111906
1111907,1111907,神明,,,11119,1,049-0561,檜山郡上ノ国町字神明,140.265709,41.734481,1957-01-25,2014-05-12,2,1111907
1111908,1111908,吉堀,,,11119,1,049-0453,上磯郡木古内町字大川,140.379226,41.684059,1935-12-10,2014-05-12,2,1111908
1111909,1111909,渡島鶴岡,,,11119,1,049-0455,上磯郡木古内町字鶴岡,140.41137,41.671014,1964-12-30,2014-05-12,2,1111909
1120101,1120601,八戸,,,11201,2,039-1101,八戸市尻内町,141.431499,40.5092,0000-00-00,0000-00-00,2,1120101
1120201,1120201,新庄,,,11202,6,996-0024,新庄市多門町,140.306064,38.76256,0000-00-00,0000-00-00,0,1120201
1120202,1120202,泉田,,,11202,6,999-5103,新庄市大字泉田,140.310039,38.811758,0000-00-00,0000-00-00,0,1120202
1120203,1120203,羽前豊里,,,11202,6,999-5208,最上郡鮭川村大字石名坂,140.242247,38.836748,0000-00-00,0000-00-00,0,1120203
1120204,1120204,真室川,,,11202,6,999-5312,最上郡真室川町大字新町,140.254814,38.858243,0000-00-00,0000-00-00,0,1120204
1120205,1120205,釜淵,,,11202,6,999-5604,最上郡真室川町大字釜淵,140.263864,38.93281,0000-00-00,0000-00-00,0,1120205
1120206,1120206,大滝,,,11202,6,999-5603,最上郡真室川町大字大滝,140.320199,38.971485,0000-00-00,0000-00-00,0,1120206
1120207,1120207,及位,,,11202,6,999-5602,最上郡真室川町大字及位,140.361164,38.992983,0000-00-00,0000-00-00,0,1120207
1120208,1120208,院内,,,11202,5,019-0111,湯沢市上院内,140.4138,39.049706,0000-00-00,0000-00-00,0,1120208
1120209,1120209,横堀,,,11202,5,019-0205,湯沢市小野,140.45131,39.064533,0000-00-00,0000-00-00,0,1120209
1120210,1120210,三関,,,11202,5,012-0864,湯沢市上関,140.483796,39.110196,0000-00-00,0000-00-00,0,1120210
1120211,1120211,上湯沢,,,11202,5,012-0862,湯沢市関口,140.485262,39.134221,0000-00-00,0000-00-00,0,1120211
1120212,1120212,湯沢,,,11202,5,012-0827,湯沢市表町,140.487011,39.163443,0000-00-00,0000-00-00,0,1120212
1120213,1120213,下湯沢,,,11202,5,012-0802,湯沢市成沢,140.50249,39.197196,0000-00-00,0000-00-00,0,1120213
1120214,1120214,十文字,,,11202,5,019-0527,横手市十文字町字大道東,140.526287,39.221186,0000-00-00,0000-00-00,0,1120214
1120215,1120215,醍醐,,,11202,5,013-0102,横手市平鹿町醍醐,140.53853,39.248716,0000-00-00,0000-00-00,0,1120215
1120216,1120216,柳田,,,11202,5,013-0054,横手市柳田,140.553856,39.276385,0000-00-00,0000-00-00,0,1120216
1120217,1120217,横手,,,11202,5,013-0036,横手市駅前町,140.5604,39.310146,0000-00-00,0000-00-00,0,1120217
1120218,1120218,後三年,,,11202,5,019-1234,仙北郡美郷町飯詰,140.538397,39.364891,0000-00-00,0000-00-00,0,1120218
1120219,1120219,飯詰,,,11202,5,019-1236,仙北郡美郷町上深井,140.515378,39.406013,0000-00-00,0000-00-00,0,1120219
1120220,1120220,大曲,,,11202,5,014-0027,大仙市大曲通町,140.479628,39.465712,0000-00-00,0000-00-00,0,1120220
1120221,1120221,神宮寺,,,11202,5,019-1701,大仙市神宮寺,140.426518,39.494841,0000-00-00,0000-00-00,0,1120221
1120222,1120222,刈和野,,,11202,5,019-2112,大仙市刈和野,140.372402,39.547646,0000-00-00,0000-00-00,0,1120222
1120223,1120223,峰吉川,,,11202,5,019-2431,大仙市協和峰吉川,140.32314,39.566586,0000-00-00,0000-00-00,0,1120223
1120224,1120224,羽後境,,,11202,5,019-2411,大仙市協和境,140.320722,39.618679,0000-00-00,0000-00-00,0,1120224
1120225,1120225,大張野,,,11202,5,019-2631,秋田市河辺神内,140.274071,39.663347,0000-00-00,0000-00-00,0,1120225
1120226,1120226,和田,,,11202,5,019-2601,秋田市河辺和田,140.218754,39.65087,0000-00-00,0000-00-00,0,1120226
1120227,1120227,四ツ小屋,,,11202,5,010-1417,秋田市四ツ小屋,140.144946,39.661341,0000-00-00,0000-00-00,0,1120227
1120228,1120228,秋田,,,11202,5,010-0001,秋田市中通７丁目,140.129931,39.716748,0000-00-00,0000-00-00,0,1120228
1120267,1120267,泉外旭川,,,11202,5,010-0817,秋田市泉菅野二丁目18番,140.112181,39.73835,2021-03-13,0000-00-00,0,1120228
1120229,1120229,土崎,,,11202,5,011-0946,秋田市土崎港中央６丁目,140.073601,39.758453,0000-00-00,0000-00-00,0,1120229
1120230,1120230,上飯島,,,11202,5,011-0911,秋田市飯島,140.06847,39.779336,0000-00-00,0000-00-00,0,1120230
1120231,1120231,追分,,,11202,5,010-0126,秋田市金足追分,140.05781,39.809925,0000-00-00,0000-00-00,0,1120231
1120232,1120232,大久保,,,11202,5,018-1401,潟上市昭和大久保,140.063079,39.87089,0000-00-00,0000-00-00,0,1120232
1120233,1120233,羽後飯塚,,,11202,5,018-1504,潟上市飯田川飯塚,140.0733,39.898981,0000-00-00,0000-00-00,0,1120233
1120234,1120234,井川さくら,,,11202,5,018-1516,南秋田郡井川町浜井川,140.076022,39.911925,0000-00-00,0000-00-00,0,1120234
1120235,1120235,八郎潟,,,11202,5,018-1614,南秋田郡八郎潟町字中田,140.078382,39.947366,0000-00-00,0000-00-00,0,1120235
1120236,1120236,鯉川,,,11202,5,018-2103,山本郡三種町鯉川,140.077474,39.996361,0000-00-00,0000-00-00,0,1120236
1120237,1120237,鹿渡,,,11202,5,018-2104,山本郡三種町鹿渡,140.082621,40.044619,0000-00-00,0000-00-00,0,1120237
1120238,1120238,森岳,,,11202,5,018-2303,山本郡三種町森岳,140.070886,40.103164,0000-00-00,0000-00-00,0,1120238
1120239,1120239,北金岡,,,11202,5,018-2301,山本郡三種町志戸橋,140.063565,40.141895,0000-00-00,0000-00-00,0,1120239
1120240,1120240,東能代,,,11202,5,016-0121,能代市鰄渕,140.065746,40.191579,0000-00-00,0000-00-00,0,1120240
1120241,1120241,鶴形,,,11202,5,016-0131,能代市字鶴形,140.118507,40.203879,0000-00-00,0000-00-00,0,1120241
1120242,1120242,富根,,,11202,5,018-3122,能代市二ツ井町飛根,140.172643,40.217956,0000-00-00,0000-00-00,0,1120242
1120243,1120243,二ツ井,,,11202,5,018-3143,能代市二ツ井町太田面,140.235729,40.212506,0000-00-00,0000-00-00,0,1120243
1120244,1120244,前山,,,11202,5,018-3342,北秋田市前山,140.312378,40.214785,0000-00-00,0000-00-00,0,1120244
1120245,1120245,鷹ノ巣,,,11202,5,018-3321,北秋田市松葉町,140.369816,40.232059,0000-00-00,0000-00-00,0,1120245
1120246,1120246,糠沢,,,11202,5,018-3301,北秋田市綴子,140.397827,40.251094,0000-00-00,0000-00-00,0,1120246
1120247,1120247,早口,,,11202,5,018-3505,大館市早口,140.447572,40.271315,0000-00-00,0000-00-00,0,1120247
1120248,1120248,下川沿,,,11202,5,017-0878,大館市川口,140.496625,40.276408,0000-00-00,0000-00-00,0,1120248
1120249,1120249,大館,,,11202,5,017-0044,大館市御成町１丁目,140.555946,40.288122,0000-00-00,0000-00-00,0,1120249
1120250,1120250,白沢,,,11202,5,017-0002,大館市白沢,140.591657,40.338103,0000-00-00,0000-00-00,0,1120250
1120251,1120251,陣場,,,11202,5,017-0001,大館市大字長走,140.607523,40.398864,0000-00-00,0000-00-00,0,1120251
1120252,1120252,津軽湯の沢,,,11202,2,038-0101,平川市碇ケ関,140.632055,40.441879,0000-00-00,0000-00-00,0,1120252
1120253,1120253,碇ケ関,,,11202,2,038-0101,青森県平川市碇ヶ関高田13,140.622443,40.478988,0000-00-00,0000-00-00,0,1120253
1120254,1120254,長峰,,,11202,2,038-0202,南津軽郡大鰐町大字長峰,140.603069,40.516072,0000-00-00,0000-00-00,0,1120254
1120255,1120255,大鰐温泉,,,11202,2,038-0211,南津軽郡大鰐町大字大鰐字前田,140.566914,40.52154,0000-00-00,0000-00-00,0,1120255
1120256,1120256,石川,,,11202,2,036-8124,青森県弘前市大字石川字野崎25-2,140.530951,40.556021,0000-00-00,0000-00-00,0,1120256
1120257,1120257,弘前,,,11202,2,036-8096,弘前市表町,140.485016,40.599723,0000-00-00,0000-00-00,0,1120257
1120258,1120258,撫牛子,,,11202,2,036-8075,弘前市大字撫牛子,140.497616,40.621298,0000-00-00,0000-00-00,0,1120258
1120259,1120259,川部,,,11202,2,038-1141,南津軽郡田舎館村大字川部,140.521376,40.646862,0000-00-00,0000-00-00,0,1120259
1120260,1120260,北常盤,,,11202,2,038-1214,南津軽郡藤崎町常盤,140.54359,40.67053,0000-00-00,0000-00-00,0,1120260
1120261,1120261,浪岡,,,11202,2,038-1311,青森市浪岡浪岡,140.580664,40.71021,0000-00-00,0000-00-00,0,1120261
1120262,1120262,大釈迦,,,11202,2,038-1301,青森市浪岡大釈迦,140.587776,40.756736,0000-00-00,0000-00-00,0,1120262
1120263,1120263,鶴ケ坂,,,11202,2,038-0045,青森県青森市大字鶴ケ坂字川合91-3,140.634878,40.791228,0000-00-00,0000-00-00,0,1120263
1120264,1120264,津軽新城,,,11202,2,038-0042,青森市大字新城,140.672025,40.828022,0000-00-00,0000-00-00,0,1120264
1120265,1120265,新青森,,,11202,2,038-0003,青森県青森市大字石江字高間140-2,140.693472,40.8275,1986-11-01,0000-00-00,0,1120265
1120266,1120120,青森,,,11202,2,038-0012,青森市柳川１丁目,140.734738,40.828668,0000-00-00,0000-00-00,0,1120266
1120301,1120110,野辺地,,,11203,2,039-3131,上北郡野辺地町大字野辺地,141.119603,40.855142,0000-00-00,0000-00-00,0,1120301
1120302,1120302,北野辺地,,,11203,2,039-3131,上北郡野辺地町大字野辺地,141.134115,40.871077,0000-00-00,0000-00-00,0,1120302
1120303,1120303,有戸,,,11203,2,039-3108,上北郡野辺地町大字有戸,141.189264,40.913949,0000-00-00,0000-00-00,0,1120303
1120304,1120304,吹越,,,11203,2,039-4153,上北郡横浜町字吹越,141.246552,41.022038,0000-00-00,0000-00-00,0,1120304
1120305,1120305,陸奥横浜,,,11203,2,039-4133,上北郡横浜町字舘の後,141.249757,41.086544,0000-00-00,0000-00-00,0,1120305
1120306,1120306,有畑,,,11203,2,039-4106,上北郡横浜町字有畑,141.276421,41.131818,0000-00-00,0000-00-00,0,1120306
1120307,1120307,近川,,,11203,2,035-0011,むつ市大字奥内,141.279021,41.191687,0000-00-00,0000-00-00,0,1120307
1120308,1120308,金谷沢,,,11203,2,035-0011,むつ市大字奥内,141.248432,41.228854,0000-00-00,0000-00-00,0,1120308
1120309,1120309,赤川,,,11203,2,035-0044,むつ市赤川町,141.209339,41.267829,0000-00-00,0000-00-00,0,1120309
1120310,1120310,下北,,,11203,2,035-0061,むつ市下北町,141.18989,41.28288,0000-00-00,0000-00-00,0,1120310
1120311,1120311,大湊,,,11203,2,035-0084,むつ市大湊新町,141.161772,41.280344,0000-00-00,0000-00-00,0,1120311
1120401,1120240,東能代,,,11204,5,016-0121,能代市鰄渕,140.065746,40.191579,0000-00-00,0000-00-00,0,1120401
1120402,1120402,能代,,,11204,5,016-0831,秋田県能代市元町14-40,140.033084,40.206577,0000-00-00,0000-00-00,0,1120402
1120403,1120403,向能代,,,11204,5,016-0014,能代市落合,140.039111,40.225669,0000-00-00,0000-00-00,0,1120403
1120404,1120404,北能代,,,11204,5,016-0016,能代市竹生,140.033835,40.254138,0000-00-00,0000-00-00,0,1120404
1120405,1120405,鳥形,,,11204,5,016-0011,能代市坂形,140.036931,40.271433,0000-00-00,0000-00-00,0,1120405
1120406,1120406,沢目,,,11204,5,018-2501,山本郡八峰町峰浜水沢,140.037824,40.295929,0000-00-00,0000-00-00,0,1120406
1120407,1120407,東八森,,,11204,5,018-2678,山本郡八峰町八森八森,140.032462,40.332086,0000-00-00,0000-00-00,0,1120407
1120408,1120408,八森,,,11204,5,018-2641,山本郡八峰町八森中浜,140.017882,40.37135,0000-00-00,0000-00-00,0,1120408
1120409,1120409,滝ノ間,,,11204,5,018-2623,山本郡八峰町八森滝ノ間,140.00221,40.379967,0000-00-00,0000-00-00,0,1120409
1120410,1120410,あきた白神,,,11204,5,018-2617,山本郡八峰町八森御所の台,139.987793,40.386583,0000-00-00,0000-00-00,0,1120410
1120411,1120411,岩館,,,11204,5,018-2606,山本郡八峰町八森釜の上,139.966258,40.406241,0000-00-00,0000-00-00,0,1120411
1120412,1120412,大間越,,,11204,2,038-2208,西津軽郡深浦町大間越,139.950062,40.492407,0000-00-00,0000-00-00,0,1120412
1120413,1120413,白神岳登山口,,,11204,2,038-2207,西津軽郡深浦町黒崎,139.950318,40.513551,0000-00-00,0000-00-00,0,1120413
1120414,1120414,松神,,,11204,2,038-2206,西津軽郡深浦町松神,139.946556,40.534902,0000-00-00,0000-00-00,0,1120414
1120415,1120415,十二湖,,,11204,2,038-2206,西津軽郡深浦町松神,139.941986,40.551539,0000-00-00,0000-00-00,0,1120415
1120416,1120416,陸奥岩崎,,,11204,2,038-2202,西津軽郡深浦町岩崎,139.924183,40.583333,0000-00-00,0000-00-00,0,1120416
1120417,1120417,陸奥沢辺,,,11204,2,038-2201,西津軽郡深浦町沢辺,139.894991,40.586175,0000-00-00,0000-00-00,0,1120417
1120418,1120418,ウェスパ椿山,,,11204,2,038-2327,西津軽郡深浦町大字舮作字鍋石２２６-１,139.871157,40.592913,0000-00-00,0000-00-00,0,1120418
1120419,1120419,艫作,,,11204,2,038-2327,西津軽郡深浦町大字舮作,139.864856,40.608534,0000-00-00,0000-00-00,0,1120419
1120420,1120420,横磯,,,11204,2,038-2325,西津軽郡深浦町大字横磯,139.89091,40.629891,0000-00-00,0000-00-00,0,1120420
1120421,1120421,深浦,,,11204,2,038-2324,西津軽郡深浦町大字深浦,139.929372,40.650239,0000-00-00,0000-00-00,0,1120421
1120422,1120422,広戸,,,11204,2,038-2321,西津軽郡深浦町大字広戸,139.955586,40.67434,0000-00-00,0000-00-00,0,1120422
1120423,1120423,追良瀬,,,11204,2,038-2413,西津軽郡深浦町大字追良瀬,139.970298,40.686114,0000-00-00,0000-00-00,0,1120423
1120424,1120424,驫木,,,11204,2,038-2412,西津軽郡深浦町大字驫木,139.982954,40.707218,0000-00-00,0000-00-00,0,1120424
1120425,1120425,風合瀬,,,11204,2,038-2411,西津軽郡深浦町大字風合瀬,139.99432,40.731826,0000-00-00,0000-00-00,0,1120425
1120426,1120426,大戸瀬,,,11204,2,038-2505,西津軽郡深浦町大字田野沢,140.033596,40.759325,0000-00-00,0000-00-00,0,1120426
1120427,1120427,千畳敷,,,11204,2,038-2504,西津軽郡深浦町大字北金ケ沢,140.054832,40.767769,0000-00-00,0000-00-00,0,1120427
1120428,1120428,北金ケ沢,,,11204,2,038-2503,青森県西津軽郡深浦町大字関字栃沢92,140.095052,40.745995,0000-00-00,0000-00-00,0,1120428
1120429,1120429,陸奥柳田,,,11204,2,038-2501,西津軽郡深浦町大字柳田,140.123243,40.740616,0000-00-00,0000-00-00,0,1120429
1120430,1120430,陸奥赤石,,,11204,2,038-2731,西津軽郡鰺ヶ沢町赤石町,140.162057,40.76156,0000-00-00,0000-00-00,0,1120430
1120431,1120431,鰺ケ沢,,,11204,2,038-2761,青森県西津軽郡鰺ヶ沢町大字舞戸町字下富田36-2,140.220589,40.775255,0000-00-00,0000-00-00,0,1120431
1120432,1120432,鳴沢,,,11204,2,038-2701,西津軽郡鰺ヶ沢町北浮田町,140.267617,40.782189,0000-00-00,0000-00-00,0,1120432
1120433,1120433,越水,,,11204,2,038-2818,つがる市森田町大館,140.298628,40.787258,0000-00-00,0000-00-00,0,1120433
1120434,1120434,陸奥森田,,,11204,2,038-2817,つがる市森田町床舞,140.339033,40.781738,0000-00-00,0000-00-00,0,1120434
1120435,1120435,中田,,,11204,2,038-2814,つがる市森田町中田,140.364505,40.787424,0000-00-00,0000-00-00,0,1120435
1120436,1120436,木造,,,11204,2,038-3158,つがる市木造房松,140.387775,40.802482,0000-00-00,0000-00-00,0,1120436
1120437,1120437,五所川原,,,11204,2,037-0063,五所川原市字大町,140.44776,40.809124,0000-00-00,0000-00-00,0,1120437
1120438,1120438,陸奥鶴田,,,11204,2,038-3503,北津軽郡鶴田町大字鶴田,140.435276,40.757544,0000-00-00,0000-00-00,0,1120438
1120439,1120439,鶴泊,,,11204,2,038-3522,北津軽郡鶴田町大字鶴泊,140.437616,40.736026,0000-00-00,0000-00-00,0,1120439
1120440,1120440,板柳,,,11204,2,038-3661,北津軽郡板柳町大字福野田,140.461785,40.69726,0000-00-00,0000-00-00,0,1120440
1120441,1120441,林崎,,,11204,2,038-3806,南津軽郡藤崎町大字林崎,140.480401,40.675355,0000-00-00,0000-00-00,0,1120441
1120442,1120442,藤崎,,,11204,2,038-3802,南津軽郡藤崎町大字藤崎,140.499531,40.654047,0000-00-00,0000-00-00,0,1120442
1120443,1120259,川部,,,11204,2,038-1141,南津軽郡田舎館村大字川部,140.521376,40.646862,0000-00-00,0000-00-00,0,1120443
1120501,1120120,青森,,,11205,2,038-0012,青森市柳川１丁目,140.734738,40.828668,0000-00-00,0000-00-00,0,1120501
1120502,1120502,油川,,,11205,2,038-0058,青森市大字羽白,140.690476,40.857035,0000-00-00,0000-00-00,0,1120502
1120503,1120503,津軽宮田,,,11205,2,038-0054,青森市大字奥内,140.674579,40.887184,0000-00-00,0000-00-00,0,1120503
1120504,1120504,奥内,,,11205,2,038-0052,青森市大字清水,140.672382,40.903044,0000-00-00,0000-00-00,0,1120504
1120505,1120505,左堰,,,11205,2,030-1273,青森市大字左堰,140.665929,40.917214,0000-00-00,0000-00-00,0,1120505
1120506,1120506,後潟,,,11205,2,030-1271,青森市大字六枚橋,140.662734,40.931519,0000-00-00,0000-00-00,0,1120506
1120507,1120507,中沢,,,11205,2,030-1261,青森市大字四戸橋,140.656244,40.949044,0000-00-00,0000-00-00,0,1120507
1120508,1120508,蓬田,,,11205,2,030-1212,東津軽郡蓬田村大字阿弥陀川,140.654533,40.969042,0000-00-00,0000-00-00,0,1120508
1120509,1120509,郷沢,,,11205,2,030-1203,東津軽郡蓬田村大字郷沢,140.652399,40.987682,0000-00-00,0000-00-00,0,1120509
1120510,1120510,瀬辺地,,,11205,2,030-1202,東津軽郡蓬田村大字瀬辺地,140.648179,41.007869,0000-00-00,0000-00-00,0,1120510
1120511,1120511,蟹田,,,11205,2,030-1303,東津軽郡外ヶ浜町蟹田,140.642565,41.038274,0000-00-00,0000-00-00,0,1120511
1120512,1111801,中小国,,,11205,2,030-1305,東津軽郡外ヶ浜町蟹田小国,140.596798,41.051702,0000-00-00,0000-00-00,0,1120512
1120513,1120513,大平,,,11205,2,030-1307,東津軽郡外ヶ浜町字蟹田大平,140.559375,41.065866,0000-00-00,0000-00-00,0,1120513
1120514,1111802,津軽二股,,,11205,2,030-1505,東津軽郡今別町大字大川平,140.514231,41.145937,0000-00-00,0000-00-00,0,1120514
1120515,1120515,大川平,,,11205,2,030-1505,東津軽郡今別町大字大川平,140.507592,41.163204,0000-00-00,0000-00-00,0,1120515
1120516,1120516,今別,,,11205,2,030-1502,東津軽郡今別町大字今別,140.490448,41.179741,0000-00-00,0000-00-00,0,1120516
1120517,1120517,津軽浜名,,,11205,2,030-1501,東津軽郡今別町大字浜名,140.47185,41.180521,0000-00-00,0000-00-00,0,1120517
1120518,1120518,三厩,,,11205,2,030-1737,東津軽郡外ヶ浜町三厩東町,140.444482,41.185404,0000-00-00,0000-00-00,0,1120518
1120601,1120601,八戸,,,11206,2,039-1101,八戸市尻内町,141.431499,40.5092,0000-00-00,0000-00-00,0,1120601
1120602,1120602,長苗代,,,11206,2,039-1103,八戸市大字長苗代,141.465907,40.52146,0000-00-00,0000-00-00,0,1120602
1120603,1120603,本八戸,,,11206,2,031-0075,八戸市内丸１,141.488762,40.516286,0000-00-00,0000-00-00,0,1120603
1120604,1120604,小中野,,,11206,2,031-0802,八戸市大字小中野町,141.510032,40.518767,0000-00-00,0000-00-00,0,1120604
1120605,1120605,陸奥湊,,,11206,2,031-0812,八戸市大字湊町,141.527652,40.52335,0000-00-00,0000-00-00,0,1120605
1120606,1120606,白銀,,,11206,2,031-0821,八戸市大字白銀,141.541648,40.522031,0000-00-00,0000-00-00,0,1120606
1120607,1120607,鮫,,,11206,2,031-0841,八戸市大字鮫町,141.554891,40.530244,0000-00-00,0000-00-00,0,1120607
1120608,1120608,プレイピア白浜,,,11206,2,031-0841,八戸市大字鮫町,141.581528,40.524448,1986-08-01,2012-03-17,2,1120608
1120609,1120609,陸奥白浜,,,11206,2,031-0841,八戸市大字鮫町,141.592299,40.516636,0000-00-00,0000-00-00,0,1120609
1120610,1120610,種差海岸,,,11206,2,031-0841,八戸市大字鮫町,141.607367,40.506951,0000-00-00,0000-00-00,0,1120610
1120611,1120611,大久喜,,,11206,2,031-0841,八戸市大字鮫町,141.622958,40.495135,0000-00-00,0000-00-00,0,1120611
1120612,1120612,金浜,,,11206,2,031-0843,八戸市大字金浜字金浜,141.637366,40.475994,0000-00-00,0000-00-00,0,1120612
1120613,1120613,大蛇,,,11206,2,039-1201,三戸郡階上町大字道仏,141.650773,40.467251,0000-00-00,0000-00-00,0,1120613
1120614,1120614,階上,,,11206,2,039-1201,三戸郡階上町大字道仏,141.664958,40.456834,0000-00-00,0000-00-00,0,1120614
1120615,1120615,角の浜,,,11206,3,028-7911,九戸郡洋野町種市第３９地割角浜,141.681773,40.444478,0000-00-00,0000-00-00,0,1120615
1120616,1120616,平内,,,11206,3,028-7900,九戸郡洋野町種市第３６地割,141.699272,40.42552,0000-00-00,0000-00-00,0,1120616
1120617,1120617,種市,,,11206,3,028-7900,九戸郡洋野町種市第２３地割,141.715232,40.410384,0000-00-00,0000-00-00,0,1120617
1120618,1120618,玉川,,,11206,3,028-7900,九戸郡洋野町種市第１３地割,141.735117,40.380424,0000-00-00,0000-00-00,0,1120618
1120619,1120619,宿戸,,,11206,3,028-7900,九戸郡洋野町種市第７地割,141.746683,40.366129,0000-00-00,0000-00-00,0,1120619
1120620,1120620,陸中八木,,,11206,3,028-7900,九戸郡洋野町種市第１地割,141.766517,40.345485,0000-00-00,0000-00-00,0,1120620
1120621,1120621,有家,,,11206,3,028-7905,九戸郡洋野町有家,141.773031,40.324007,0000-00-00,0000-00-00,0,1120621
1120622,1120622,陸中中野,,,11206,3,028-7906,九戸郡洋野町中野,141.787768,40.305165,0000-00-00,0000-00-00,0,1120622
1120623,1120623,侍浜,,,11206,3,028-7801,久慈市侍浜町字堀切,141.760575,40.261375,0000-00-00,0000-00-00,0,1120623
1120624,1120624,陸中夏井,,,11206,3,028-0001,久慈市夏井町字大崎,141.791906,40.207747,0000-00-00,0000-00-00,0,1120624
1120625,1120625,久慈,,,11206,3,028-0061,久慈市中央３,141.770891,40.190391,0000-00-00,0000-00-00,0,1120625
1120701,1120701,茂市,,,11207,3,028-2101,宮古市茂市,141.799288,39.620619,1934-11-06,2014-04-01,2,1120701
1120702,1120702,岩手刈屋,,,11207,3,028-2104,宮古市刈屋,141.759296,39.642688,1942-06-25,2014-04-01,2,1120702
1120703,1120703,中里,,,11207,3,028-2104,宮古市刈屋,141.736067,39.661836,1966-10-01,2014-04-01,2,1120703
1120704,1120704,岩手和井内,,,11207,3,028-2105,宮古市和井内,141.715705,39.679905,1942-06-25,2014-04-01,2,1120704
1120705,1120705,押角,,,11207,3,028-2105,宮古市和井内,141.693181,39.724029,1944-07-20,2014-04-01,2,1120705
1120706,1120706,岩手大川,,,11207,3,028-2232,下閉伊郡岩泉町大字大川,141.671909,39.800208,1957-05-16,2014-04-01,2,1120706
1120707,1120707,浅内,,,11207,3,028-2231,下閉伊郡岩泉町大字浅内,141.727016,39.819482,1957-05-16,2014-04-01,2,1120707
1120708,1120708,二升石,,,11207,3,027-0507,下閉伊郡岩泉町大字二升石,141.745741,39.836739,1972-02-06,2014-04-01,2,1120708
1120709,1120709,岩泉,,,11207,3,027-0501,下閉伊郡岩泉町大字岩泉,141.786446,39.845044,1972-02-06,2014-04-01,2,1120709
1120801,1123166,一ノ関,,,11208,3,021-0867,一関市駅前,141.138177,38.926514,0000-00-00,0000-00-00,0,1120801
1120802,1120802,真滝,,,11208,3,029-0132,一関市滝沢,141.17793,38.908239,0000-00-00,0000-00-00,0,1120802
1120803,1120803,陸中門崎,,,11208,3,029-0201,一関市川崎町門崎,141.251226,38.916908,0000-00-00,0000-00-00,0,1120803
1120804,1120804,岩ノ下,,,11208,3,029-0303,一関市東山町松川,141.245342,38.947699,0000-00-00,0000-00-00,0,1120804
1120805,1120805,陸中松川,,,11208,3,029-0303,一関市東山町松川,141.238046,38.977237,0000-00-00,0000-00-00,0,1120805
1120806,1120806,猊鼻渓,,,11208,3,029-0302,一関市東山町長坂,141.25327,38.988939,0000-00-00,0000-00-00,0,1120806
1120807,1120807,柴宿,,,11208,3,029-0302,一関市東山町長坂,141.272312,38.996719,0000-00-00,0000-00-00,0,1120807
1120808,1120808,摺沢,,,11208,3,029-0523,一関市大東町摺沢,141.32146,38.99593,0000-00-00,0000-00-00,0,1120808
1120809,1120809,千厩,,,11208,3,029-0803,一関市千厩町千厩,141.34563,38.924873,0000-00-00,0000-00-00,0,1120809
1120810,1120810,小梨,,,11208,3,029-0801,一関市千厩町清田,141.38418,38.932493,0000-00-00,0000-00-00,0,1120810
1120811,1120811,矢越,,,11208,3,029-1202,一関市室根町矢越,141.429029,38.935224,0000-00-00,0000-00-00,0,1120811
1120812,1120812,折壁,,,11208,3,029-1201,一関市室根町折壁,141.452346,38.939428,0000-00-00,0000-00-00,0,1120812
1120813,1120813,新月,,,11208,3,029-1201,一関市室根町折壁,141.488796,38.915598,0000-00-00,0000-00-00,0,1120813
1120814,1120814,気仙沼,,,11208,4,988-0077,気仙沼市古町,141.558893,38.910031,0000-00-00,0000-00-00,0,1120814
1120815,1120815,鹿折唐桑,,,11208,4,988-0005,気仙沼市新浜町,141.579457,38.915555,0000-00-00,2020-04-01,2,1120815
1120816,1120816,上鹿折,,,11208,4,988-0803,気仙沼市字上東側,141.568232,38.960661,0000-00-00,2020-04-01,2,1120816
1120817,1120817,陸前矢作,,,11208,3,029-2201,陸前高田市矢作町字打越,141.579357,39.022554,0000-00-00,2020-04-01,2,1120817
1120818,1120818,竹駒,,,11208,3,029-2203,陸前高田市竹駒町字十日市場,141.609729,39.033651,0000-00-00,2020-04-01,2,1120818
1120819,1120819,陸前高田,,,11208,3,029-2205,陸前高田市高田町字並杉,141.625332,39.013021,0000-00-00,2020-04-01,2,1120819
1120820,1120820,脇ノ沢,,,11208,3,029-2206,陸前高田市米崎町字脇の沢,141.657359,39.006584,0000-00-00,2020-04-01,2,1120820
1120821,1120821,小友,,,11208,3,029-2207,陸前高田市小友町字下新田,141.699573,38.989242,0000-00-00,2020-04-01,2,1120821
1120822,1120822,細浦,,,11208,3,022-0001,大船渡市末崎町字細浦,141.713642,39.015973,0000-00-00,2020-04-01,2,1120822
1120823,1120823,下船渡,,,11208,3,022-0002,大船渡市大船渡町字宮ノ前,141.721222,39.038362,0000-00-00,2020-04-01,2,1120823
1120824,1120824,大船渡,,,11208,3,022-0002,大船渡市大船渡町字茶屋前,141.720807,39.063529,0000-00-00,2020-04-01,2,1120824
1120825,1120825,盛,,,11208,3,022-0003,大船渡市盛町字東町裏,141.710734,39.086372,0000-00-00,2020-04-01,2,1120825
1120901,1123176,花巻,,,11209,3,025-0092,花巻市大通り,141.110458,39.393182,0000-00-00,0000-00-00,0,1120901
1120902,1120902,似内,,,11209,3,025-0007,花巻市上似内,141.140889,39.406819,0000-00-00,0000-00-00,0,1120902
1120903,1120903,新花巻,,,11209,3,025-0011,花巻市矢沢第１０地割,141.17302,39.405839,0000-00-00,0000-00-00,0,1120903
1120904,1120904,小山田,,,11209,3,025-0013,花巻市幸田,141.193999,39.4086,0000-00-00,0000-00-00,0,1120904
1120905,1120905,土沢,,,11209,3,028-0114,花巻市東和町土沢,141.232488,39.383381,0000-00-00,0000-00-00,0,1120905
1120906,1120906,晴山,,,11209,3,028-0113,花巻市東和町東晴山,141.257892,39.366617,0000-00-00,0000-00-00,0,1120906
1120907,1120907,岩根橋,,,11209,3,028-0304,遠野市宮守町下宮守,141.318795,39.355264,0000-00-00,0000-00-00,0,1120907
1120908,1120908,宮守,,,11209,3,028-0304,遠野市宮守町下宮守,141.350271,39.351066,0000-00-00,0000-00-00,0,1120908
1120909,1120909,柏木平,,,11209,3,028-0303,遠野市宮守町下鱒沢,141.379862,39.30606,0000-00-00,0000-00-00,0,1120909
1120910,1120910,鱒沢,,,11209,3,028-0303,遠野市宮守町下鱒沢,141.399252,39.300158,0000-00-00,0000-00-00,0,1120910
1120911,1120911,荒谷前,,,11209,3,028-0302,遠野市宮守町上鱒沢,141.428507,39.309928,0000-00-00,0000-00-00,0,1120911
1120912,1120912,岩手二日町,,,11209,3,028-0532,遠野市綾織町下綾織,141.45606,39.323441,0000-00-00,0000-00-00,0,1120912
1120913,1120913,綾織,,,11209,3,028-0531,遠野市綾織町新里,141.476845,39.328422,0000-00-00,0000-00-00,0,1120913
1120914,1120914,遠野,,,11209,3,028-0522,遠野市新穀町,141.53072,39.332529,0000-00-00,0000-00-00,0,1120914
1120915,1120915,青笹,,,11209,3,028-0503,遠野市青笹町青笹,141.568957,39.311482,0000-00-00,0000-00-00,0,1120915
1120916,1120916,岩手上郷,,,11209,3,028-0776,遠野市上郷町板沢,141.585834,39.284658,0000-00-00,0000-00-00,0,1120916
1120917,1120917,平倉,,,11209,3,028-0775,遠野市上郷町平倉,141.595661,39.264682,0000-00-00,0000-00-00,0,1120917
1120918,1120918,足ケ瀬,,,11209,3,028-0772,岩手県遠野市上郷町細越38,141.645807,39.254766,0000-00-00,0000-00-00,0,1120918
1120919,1120919,上有住,,,11209,3,029-2501,気仙郡住田町上有住,141.681522,39.242013,0000-00-00,0000-00-00,0,1120919
1120920,1120920,陸中大橋,,,11209,3,026-0055,釜石市甲子町,141.718436,39.280451,0000-00-00,0000-00-00,0,1120920
1120921,1120921,洞泉,,,11209,3,026-0055,釜石市甲子町,141.760388,39.250671,0000-00-00,0000-00-00,0,1120921
1120922,1120922,松倉,,,11209,3,026-0055,釜石市甲子町,141.801484,39.256458,0000-00-00,0000-00-00,0,1120922
1120923,1120923,小佐野,,,11209,3,026-0052,釜石市小佐野町１,141.836515,39.264464,0000-00-00,0000-00-00,0,1120923
1120924,1120924,釜石,,,11209,3,026-0031,釜石市鈴子町,141.87267,39.273321,0000-00-00,0000-00-00,0,1120924
1121001,1123174,北上,,,11210,3,024-0061,北上市大通り１丁目,141.121221,39.281196,0000-00-00,0000-00-00,0,1121001
1121002,1121002,柳原,,,11210,3,024-0083,北上市柳原町１丁目,141.111671,39.294597,0000-00-00,0000-00-00,0,1121002
1121003,1121003,江釣子,,,11210,3,024-0071,北上市上江釣子,141.075749,39.298349,0000-00-00,0000-00-00,0,1121003
1121004,1121004,藤根,,,11210,3,024-0334,北上市和賀町藤根,141.039571,39.301064,0000-00-00,0000-00-00,0,1121004
1121005,1121005,立川目,,,11210,3,024-0332,北上市和賀町竪川目,140.997144,39.307876,0000-00-00,0000-00-00,0,1121005
1121006,1121006,横川目,,,11210,3,024-0331,北上市和賀町横川目,140.972143,39.309255,0000-00-00,0000-00-00,0,1121006
1121007,1121007,岩沢,,,11210,3,024-0325,北上市和賀町岩沢,140.931616,39.301016,0000-00-00,0000-00-00,0,1121007
1121008,1121008,和賀仙人,,,11210,3,024-0326,北上市和賀町仙人,140.909485,39.308523,0000-00-00,0000-00-00,0,1121008
1121009,1121009,ゆだ錦秋湖,,,11210,3,029-5513,和賀郡西和賀町耳取４９地割,140.835343,39.295513,0000-00-00,0000-00-00,0,1121009
1121010,1121010,ほっとゆだ,,,11210,3,029-5512,和賀郡西和賀町川尻４０地割,140.775647,39.314493,0000-00-00,0000-00-00,0,1121010
1121011,1121011,ゆだ高原,,,11210,3,029-5523,和賀郡西和賀町白木野６７地割,140.737205,39.301074,0000-00-00,0000-00-00,0,1121011
1121012,1121012,黒沢,,,11210,5,019-1103,秋田県横手市山内黒沢字蒲坂57,140.699619,39.276243,0000-00-00,0000-00-00,0,1121012
1121013,1121013,小松川,,,11210,5,019-1102,横手市山内小松川,140.646094,39.293403,0000-00-00,0000-00-00,0,1121013
1121014,1121014,平石,,,11210,5,019-1108,横手市山内土渕,140.628457,39.291678,0000-00-00,2022-03-12,2,1121014
1121015,1121015,相野々,,,11210,5,019-1108,横手市山内土渕,140.619067,39.27805,0000-00-00,0000-00-00,0,1121015
1121016,1121016,矢美津,,,11210,5,019-1109,横手市山内大沢,140.592099,39.291283,0000-00-00,2022-03-12,2,1121016
1121017,1120217,横手,,,11210,5,013-0036,横手市駅前町,140.5604,39.310146,0000-00-00,0000-00-00,0,1121017
1121101,1123185,盛岡,,,11211,3,020-0034,盛岡市盛岡駅前通,141.136599,39.701547,0000-00-00,0000-00-00,0,1121101
1121118,1121118,前潟,,,11211,3,020-0143,岩手県盛岡市上厨川前潟153-1,141.101,39.713028,2023-03-18,0000-00-00,0,1121101
1121102,1121102,大釜,,,11211,3,020-0731,岩手県滝沢市篠木明法,141.072202,39.711586,0000-00-00,0000-00-00,0,1121102
1121103,1121103,小岩井,,,11211,3,020-0757,岩手県滝沢市大釜風林19-2,141.02465,39.709731,0000-00-00,0000-00-00,0,1121103
1121104,1121104,雫石,,,11211,3,020-0524,岩手郡雫石町寺の下,140.974762,39.689244,0000-00-00,0000-00-00,0,1121104
1121105,1121105,春木場,,,11211,3,020-0583,岩手郡雫石町大字上野,140.943954,39.693396,0000-00-00,0000-00-00,0,1121105
1121106,1121106,赤渕,,,11211,3,020-0581,岩手郡雫石町大字御明神,140.907222,39.685112,0000-00-00,0000-00-00,0,1121106
1121107,1121107,田沢湖,,,11211,5,014-1201,仙北市田沢湖生保内,140.722139,39.700363,0000-00-00,0000-00-00,0,1121107
1121108,1121108,刺巻,,,11211,5,014-1202,仙北市田沢湖刺巻,140.69196,39.668563,0000-00-00,0000-00-00,0,1121108
1121109,1121109,神代,,,11211,5,014-1113,仙北市田沢湖卒田,140.627358,39.622667,0000-00-00,0000-00-00,0,1121109
1121110,1121110,生田,,,11211,5,014-1114,仙北市田沢湖神代,140.601203,39.612065,0000-00-00,0000-00-00,0,1121110
1121111,1121111,角館,,,11211,5,014-0373,仙北市角館町岩瀬,140.570988,39.591716,0000-00-00,0000-00-00,0,1121111
1121112,1121112,鶯野,,,11211,5,014-0201,大仙市下鶯野,140.557901,39.568536,0000-00-00,0000-00-00,0,1121112
1121113,1121113,羽後長野,,,11211,5,014-0207,大仙市長野,140.540448,39.546003,0000-00-00,0000-00-00,0,1121113
1121114,1121114,鑓見内,,,11211,5,014-0205,大仙市鑓見内,140.527744,39.519323,0000-00-00,0000-00-00,0,1121114
1121115,1121115,羽後四ツ屋,,,11211,5,014-0102,大仙市四ツ屋,140.511886,39.501511,0000-00-00,0000-00-00,0,1121115
1121116,1121116,北大曲,,,11211,5,014-0102,大仙市四ツ屋,140.497966,39.48944,0000-00-00,0000-00-00,0,1121116
1121117,1120220,大曲,,,11211,5,014-0027,大仙市大曲通町,140.479628,39.465712,0000-00-00,0000-00-00,0,1121117
1121201,1121201,好摩,,,11212,3,028-4125,盛岡市玉山区好摩,141.173685,39.874037,0000-00-00,0000-00-00,0,1121201
1121202,1121202,東大更,,,11212,3,028-7111,八幡平市大更,141.142537,39.902621,0000-00-00,0000-00-00,0,1121202
1121203,1121203,大更,,,11212,3,028-7111,八幡平市大更,141.100808,39.913746,0000-00-00,0000-00-00,0,1121203
1121204,1121204,平館,,,11212,3,028-7405,八幡平市平舘,141.08531,39.950886,0000-00-00,0000-00-00,0,1121204
1121205,1121205,北森,,,11212,3,028-7301,八幡平市野駄,141.071889,39.956694,1961-04-20,0000-00-00,0,1121205
1121206,1121206,松尾八幡平,,,11212,3,028-7305,八幡平市松尾,141.043903,39.969241,0000-00-00,0000-00-00,0,1121206
1121207,1121207,安比高原,,,11212,3,028-7305,八幡平市松尾前森官有地,140.997239,40.012587,0000-00-00,0000-00-00,0,1121207
1121208,1121208,赤坂田,,,11212,3,028-7554,八幡平市赤坂田,141.00394,40.048464,0000-00-00,0000-00-00,0,1121208
1121209,1121209,小屋の畑,,,11212,3,028-7544,八幡平市保戸坂,141.020673,40.076539,0000-00-00,0000-00-00,0,1121209
1121210,1121210,荒屋新町,,,11212,3,028-7534,八幡平市荒屋新町,141.049196,40.097682,0000-00-00,0000-00-00,0,1121210
1121211,1121211,横間,,,11212,3,028-7536,八幡平市打田内,141.027151,40.107475,0000-00-00,0000-00-00,0,1121211
1121212,1121212,田山,,,11212,3,028-7615,八幡平市石名坂,140.944126,40.139674,0000-00-00,0000-00-00,0,1121212
1121213,1121213,兄畑,,,11212,3,028-7625,八幡平市沖ノ平,140.88302,40.115869,0000-00-00,0000-00-00,0,1121213
1121214,1121214,湯瀬温泉,,,11212,5,018-5141,鹿角市八幡平湯瀬,140.840292,40.122384,0000-00-00,0000-00-00,0,1121214
1121215,1121215,八幡平,,,11212,5,018-5141,鹿角市八幡平小山,140.804496,40.142881,0000-00-00,0000-00-00,0,1121215
1121216,1121216,陸中大里,,,11212,5,018-5141,鹿角市八幡平長田,140.793477,40.158574,0000-00-00,0000-00-00,0,1121216
1121217,1121217,鹿角花輪,,,11212,5,018-5201,鹿角市花輪下中島,140.785088,40.188453,0000-00-00,0000-00-00,0,1121217
1121218,1121218,柴平,,,11212,5,018-5201,鹿角市花輪鶴田,140.787941,40.230751,0000-00-00,0000-00-00,0,1121218
1121219,1121219,十和田南,,,11212,5,018-5336,鹿角市十和田錦木,140.770716,40.256069,0000-00-00,0000-00-00,0,1121219
1121220,1121220,末広,,,11212,5,018-5337,鹿角市十和田末広,140.737251,40.229788,0000-00-00,0000-00-00,0,1121220
1121221,1121221,土深井,,,11212,5,018-5337,鹿角市十和田末広土深井字下向,140.713142,40.222452,0000-00-00,0000-00-00,0,1121221
1121222,1121222,沢尻,,,11212,5,018-5601,大館市十二所,140.693288,40.230342,0000-00-00,0000-00-00,0,1121222
1121223,1121223,十二所,,,11212,5,018-5601,大館市十二所,140.668211,40.21429,0000-00-00,0000-00-00,0,1121223
1121224,1121224,大滝温泉,,,11212,5,018-5601,大館市十二所上川代,140.639625,40.209751,0000-00-00,0000-00-00,0,1121224
1121225,1121225,扇田,,,11212,5,018-5701,大館市比内町扇田,140.572472,40.229235,0000-00-00,0000-00-00,0,1121225
1121226,1121226,東大館,,,11212,5,017-0846,大館市常盤木町,140.554745,40.266005,0000-00-00,0000-00-00,0,1121226
1121227,1120249,大館,,,11212,5,017-0044,大館市御成町１丁目,140.555946,40.288122,0000-00-00,0000-00-00,0,1121227
1121301,1123185,盛岡,,,11213,3,020-0034,盛岡市盛岡駅前通,141.136599,39.701547,0000-00-00,0000-00-00,0,1121301
1121302,1121302,上盛岡,,,11213,3,020-0015,盛岡市本町通３,141.147937,39.71146,0000-00-00,0000-00-00,0,1121302
1121303,1121303,山岸,,,11213,3,020-0004,盛岡市山岸２,141.171401,39.71596,0000-00-00,0000-00-00,0,1121303
1121304,1121304,上米内,,,11213,3,020-0001,盛岡市上米内字中居,141.203825,39.743855,0000-00-00,0000-00-00,0,1121304
1121305,1121305,大志田,,,11213,3,020-0801,盛岡市浅岸字大志田,141.280843,39.741806,1928-09-25,2016-03-26,2,1121305
1121306,1121306,浅岸,,,11213,3,020-0803,盛岡市新庄字中津川,141.339147,39.711208,1928-09-25,2016-03-26,2,1121306
1121307,1121307,区界,,,11213,3,028-2631,岩手県宮古市区界第1地割1009,141.351352,39.65177,0000-00-00,0000-00-00,0,1121307
1121308,1121308,松草,,,11213,3,028-2631,岩手県宮古市区界第4地割28,141.437421,39.635918,0000-00-00,0000-00-00,0,1121308
1121309,1121309,平津戸,,,11213,3,028-2633,岩手県宮古市平津戸,141.511222,39.623408,0000-00-00,2023-03-17,2,1121309
1121310,1121310,川内,,,11213,3,028-2513,岩手県宮古市川内第6地割48-3,141.597548,39.640744,0000-00-00,0000-00-00,0,1121310
1121311,1121311,箱石,,,11213,3,028-2304,岩手県宮古市箱石,141.625829,39.617115,0000-00-00,0000-00-00,0,1121311
1121312,1121312,陸中川井,,,11213,3,028-2302,岩手県宮古市川井第5地割102-10,141.68153,39.597397,0000-00-00,0000-00-00,0,1121312
1121313,1121313,腹帯,,,11213,3,028-2103,宮古市腹帯,141.767434,39.604539,0000-00-00,0000-00-00,0,1121313
1121314,1120701,茂市,,,11213,3,028-2101,宮古市茂市,141.799288,39.620619,0000-00-00,0000-00-00,0,1121314
1121315,1121315,蟇目,,,11213,3,028-2102,宮古市蟇目,141.838876,39.629341,0000-00-00,0000-00-00,0,1121315
1121316,1121316,花原市,,,11213,3,027-0046,宮古市大字花原市,141.861308,39.630233,0000-00-00,0000-00-00,0,1121316
1121317,1121317,千徳,,,11213,3,027-0043,宮古市大字千徳町,141.9124,39.632251,0000-00-00,0000-00-00,0,1121317
1121318,1121318,宮古,,,11213,3,027-0076,宮古市栄町,141.946454,39.640287,0000-00-00,0000-00-00,0,1121318
1121319,1121319,磯鶏,,,11213,3,027-0024,宮古市大字磯鶏,141.960984,39.629883,0000-00-00,0000-00-00,2,1121319
1121320,1121320,津軽石,,,11213,3,027-0203,宮古市大字津軽石,141.937594,39.581507,0000-00-00,0000-00-00,2,1121320
1121321,1121321,豊間根,,,11213,3,028-1302,下閉伊郡山田町豊間根,141.924739,39.534274,0000-00-00,0000-00-00,2,1121321
1121322,1121322,陸中山田,,,11213,3,028-1342,下閉伊郡山田町川向町,141.951533,39.463449,0000-00-00,0000-00-00,2,1121322
1121323,1121323,織笠,,,11213,3,028-1361,下閉伊郡山田町織笠,141.959497,39.447187,0000-00-00,0000-00-00,2,1121323
1121324,1121324,岩手船越,,,11213,3,028-1371,下閉伊郡山田町船越,141.974033,39.431369,0000-00-00,0000-00-00,2,1121324
1121325,1121325,浪板海岸,,,11213,3,028-1101,上閉伊郡大槌町吉里吉里,141.935104,39.383537,0000-00-00,0000-00-00,2,1121325
1121326,1121326,吉里吉里,,,11213,3,028-1101,上閉伊郡大槌町吉里吉里,141.938648,39.36957,0000-00-00,0000-00-00,2,1121326
1121327,1121327,大槌,,,11213,3,028-1116,上閉伊郡大槌町本町,141.902894,39.356734,0000-00-00,0000-00-00,2,1121327
1121328,1121328,鵜住居,,,11213,3,026-0301,釜石市鵜住居町,141.887976,39.32694,0000-00-00,0000-00-00,2,1121328
1121329,1121329,両石,,,11213,3,026-0304,釜石市両石町,141.889112,39.308062,0000-00-00,0000-00-00,2,1121329
1121330,1120924,釜石,,,11213,3,026-0031,釜石市鈴子町,141.87267,39.273321,0000-00-00,0000-00-00,2,1121330
1121401,1121401,新津,,,11214,15,956-0864,新潟市秋葉区新津本町１丁目,139.121445,37.800383,0000-00-00,0000-00-00,0,1121401
1121402,1121402,京ケ瀬,,,11214,15,959-2134,新潟県阿賀野市小河原453,139.178322,37.817616,0000-00-00,0000-00-00,0,1121402
1121403,1121403,水原,,,11214,15,959-2002,阿賀野市下条,139.217237,37.836712,0000-00-00,0000-00-00,0,1121403
1121404,1121404,神山,,,11214,15,959-1968,阿賀野市榎船渡,139.244691,37.862586,0000-00-00,0000-00-00,0,1121404
1121405,1121405,月岡,,,11214,15,959-2335,新発田市大字本田字中谷内,139.272488,37.889334,0000-00-00,0000-00-00,0,1121405
1121406,1121406,中浦,,,11214,15,959-2331,新発田市大字下飯塚,139.302689,37.912202,0000-00-00,0000-00-00,0,1121406
1121407,1121407,新発田,,,11214,15,957-0055,新発田市諏訪町１丁目,139.335189,37.94412,0000-00-00,0000-00-00,0,1121407
1121408,1121408,加治,,,11214,15,959-2451,新発田市下中,139.358535,37.976411,0000-00-00,0000-00-00,0,1121408
1121409,1121409,金塚,,,11214,15,959-2477,新発田市下小中山,139.37949,38.020178,0000-00-00,0000-00-00,0,1121409
1121410,1121410,中条,,,11214,15,959-2631,胎内市表町,139.397541,38.049342,0000-00-00,0000-00-00,0,1121410
1121411,1121411,平木田,,,11214,15,959-2614,胎内市平木田,139.427835,38.094338,0000-00-00,0000-00-00,0,1121411
1121412,1121412,坂町,,,11214,15,959-3132,村上市坂町,139.445838,38.119277,0000-00-00,0000-00-00,0,1121412
1121413,1121413,平林,,,11214,15,959-3435,村上市宿田,139.459045,38.150027,0000-00-00,0000-00-00,0,1121413
1121414,1121414,岩船町,,,11214,15,959-3446,村上市小口川,139.459643,38.183564,0000-00-00,0000-00-00,0,1121414
1121415,1121415,村上,,,11214,15,958-0854,村上市大字田端町,139.463306,38.219851,0000-00-00,0000-00-00,0,1121415
1121416,1121416,間島,,,11214,15,958-0005,村上市大字間島,139.450229,38.273078,0000-00-00,0000-00-00,0,1121416
1121417,1121417,越後早川,,,11214,15,958-0002,村上市大字早川字上境,139.449887,38.316185,0000-00-00,0000-00-00,0,1121417
1121418,1121418,桑川,,,11214,15,959-3665,村上市桑川,139.458838,38.375162,0000-00-00,0000-00-00,0,1121418
1121419,1121419,今川,,,11214,15,959-3662,村上市今川,139.468389,38.410081,0000-00-00,0000-00-00,0,1121419
1121420,1121420,越後寒川,,,11214,15,959-3653,村上市寒川,139.489948,38.448689,0000-00-00,0000-00-00,0,1121420
1121421,1121421,勝木,,,11214,15,959-3942,村上市勝木,139.517468,38.490315,0000-00-00,0000-00-00,0,1121421
1121422,1121422,府屋,,,11214,15,959-3907,村上市府屋,139.530452,38.513324,0000-00-00,0000-00-00,0,1121422
1121423,1121423,鼠ケ関,,,11214,6,999-7126,山形県鶴岡市鼠ヶ関乙156-2,139.548827,38.555433,0000-00-00,0000-00-00,0,1121423
1121424,1121424,小岩川,,,11214,6,999-7122,鶴岡市小岩川,139.56583,38.590399,0000-00-00,0000-00-00,0,1121424
1121425,1121425,あつみ温泉,,,11214,6,999-7205,鶴岡市温海,139.587955,38.624217,0000-00-00,0000-00-00,0,1121425
1121426,1121426,五十川,,,11214,6,999-7207,鶴岡市五十川,139.616182,38.670658,0000-00-00,0000-00-00,0,1121426
1121427,1121427,小波渡,,,11214,6,999-7462,鶴岡市大字小波渡,139.649836,38.692484,0000-00-00,0000-00-00,0,1121427
1121428,1121428,三瀬,,,11214,6,999-7463,鶴岡市大字三瀬,139.673643,38.699448,0000-00-00,0000-00-00,0,1121428
1121429,1121429,羽前水沢,,,11214,6,999-7543,鶴岡市大字大広字山崎,139.731372,38.713444,0000-00-00,0000-00-00,0,1121429
1121430,1121430,羽前大山,,,11214,6,997-1124,鶴岡市大山１丁目,139.768194,38.742155,0000-00-00,0000-00-00,0,1121430
1121431,1121431,鶴岡,,,11214,6,997-0015,鶴岡市末広町１丁目,139.83538,38.74011,0000-00-00,0000-00-00,0,1121431
1121432,1121432,藤島,,,11214,6,999-7611,鶴岡市上藤島,139.894087,38.768646,0000-00-00,0000-00-00,0,1121432
1121433,1121433,西袋,,,11214,6,999-7746,東田川郡庄内町西袋,139.907754,38.811528,0000-00-00,0000-00-00,0,1121433
1121434,1121434,余目,,,11214,6,999-7700,東田川郡庄内町沢田,139.911348,38.844321,0000-00-00,0000-00-00,0,1121434
1121435,1121435,北余目,,,11214,6,999-7703,東田川郡庄内町平岡,139.908074,38.867538,0000-00-00,0000-00-00,0,1121435
1121436,1121436,砂越,,,11214,6,999-6701,酒田市砂越,139.907345,38.895195,0000-00-00,0000-00-00,0,1121436
1121437,1121437,東酒田,,,11214,6,998-0859,酒田市大町,139.875495,38.907518,0000-00-00,0000-00-00,0,1121437
1121438,1121438,酒田,,,11214,6,998-0023,酒田市幸町１丁目,139.845987,38.922194,0000-00-00,0000-00-00,0,1121438
1121439,1121439,本楯,,,11214,6,999-8134,酒田市大字本楯,139.882081,38.968648,0000-00-00,0000-00-00,0,1121439
1121440,1121440,南鳥海,,,11214,6,999-8421,酒田市大字米島,139.898662,38.98736,0000-00-00,0000-00-00,0,1121440
1121441,1121441,遊佐,,,11214,6,999-8301,飽海郡遊佐町大字遊佐町,139.905161,39.015943,0000-00-00,0000-00-00,0,1121441
1121442,1121442,吹浦,,,11214,6,999-8521,飽海郡遊佐町大字吹浦,139.878762,39.069934,0000-00-00,0000-00-00,0,1121442
1121443,1121443,女鹿,,,11214,6,999-8521,飽海郡遊佐町大字吹浦,139.880963,39.098807,0000-00-00,0000-00-00,0,1121443
1121444,1121444,小砂川,,,11214,5,018-0143,にかほ市象潟町小砂川,139.885692,39.137507,0000-00-00,0000-00-00,0,1121444
1121445,1121445,上浜,,,11214,5,018-0135,にかほ市象潟町洗釜,139.902823,39.164738,0000-00-00,0000-00-00,0,1121445
1121446,1121446,象潟,,,11214,5,018-0112,にかほ市象潟町家の後,139.902205,39.2078,0000-00-00,0000-00-00,0,1121446
1121447,1121447,金浦,,,11214,5,018-0311,にかほ市金浦,139.920662,39.256183,0000-00-00,0000-00-00,0,1121447
1121448,1121448,仁賀保,,,11214,5,018-0402,にかほ市平沢,139.964596,39.28979,0000-00-00,0000-00-00,0,1121448
1121449,1121449,西目,,,11214,5,018-0604,由利本荘市西目町沼田,140.018518,39.347536,0000-00-00,0000-00-00,0,1121449
1121450,1121450,羽後本荘,,,11214,5,015-0858,由利本荘市西梵天,140.057632,39.386877,0000-00-00,0000-00-00,0,1121450
1121451,1121451,羽後岩谷,,,11214,5,018-0711,由利本荘市岩谷町,140.0906,39.442075,0000-00-00,0000-00-00,0,1121451
1121452,1121452,折渡,,,11214,5,018-1225,由利本荘市岩城上黒川,140.091097,39.476423,0000-00-00,0000-00-00,0,1121452
1121453,1121453,羽後亀田,,,11214,5,015-0032,由利本荘市松ケ崎,140.063032,39.493884,0000-00-00,0000-00-00,0,1121453
1121454,1121454,岩城みなと,,,11214,5,018-1301,由利本荘市岩城内道川,140.055122,39.545487,0000-00-00,0000-00-00,0,1121454
1121455,1121455,道川,,,11214,5,018-1301,由利本荘市岩城内道川,140.057049,39.56054,0000-00-00,0000-00-00,0,1121455
1121456,1121456,下浜,,,11214,5,010-1503,秋田市下浜羽川,140.064567,39.619678,0000-00-00,0000-00-00,0,1121456
1121457,1121457,桂根,,,11214,5,010-1501,秋田市下浜桂根,140.066482,39.647566,0000-00-00,0000-00-00,0,1121457
1121458,1121458,新屋,,,11214,5,010-1637,秋田市新屋扇町,140.087799,39.677493,0000-00-00,0000-00-00,0,1121458
1121459,1121459,羽後牛島,,,11214,5,010-0063,秋田市牛島西１丁目,140.116467,39.695834,0000-00-00,0000-00-00,0,1121459
1121460,1120228,秋田,,,11214,5,010-0001,秋田市中通７丁目,140.129931,39.716748,0000-00-00,0000-00-00,0,1121460
1121501,1120231,追分,,,11215,5,010-0126,秋田市金足追分,140.05781,39.809925,0000-00-00,0000-00-00,0,1121501
1121502,1121502,出戸浜,,,11215,5,010-0101,潟上市天王,140.024374,39.844473,0000-00-00,0000-00-00,0,1121502
1121503,1121503,上二田,,,11215,5,010-0101,潟上市天王,140.00409,39.869089,0000-00-00,0000-00-00,0,1121503
1121504,1121504,二田,,,11215,5,010-0101,潟上市天王,139.987171,39.88174,0000-00-00,0000-00-00,0,1121504
1121505,1121505,天王,,,11215,5,010-0101,潟上市天王,139.963609,39.898782,0000-00-00,0000-00-00,0,1121505
1121506,1121506,船越,,,11215,5,010-0341,男鹿市船越字狐森,139.946804,39.90473,0000-00-00,0000-00-00,0,1121506
1121507,1121507,脇本,,,11215,5,010-0500,男鹿市脇本字曲田,139.902657,39.915172,0000-00-00,0000-00-00,0,1121507
1121508,1121508,羽立,,,11215,5,010-0502,男鹿市船川港比詰字大巻,139.86205,39.904569,0000-00-00,0000-00-00,0,1121508
1121509,1121509,男鹿,,,11215,5,010-0511,男鹿市船川港船川字新浜町,139.848647,39.884571,0000-00-00,0000-00-00,0,1121509
1121601,1123124,福島,,,11216,7,960-8031,福島市栄町,140.45968,37.754123,0000-00-00,0000-00-00,0,1121601
1121602,1121602,笹木野,,,11216,7,960-8057,福島市笹木野字金谷東,140.425985,37.765926,0000-00-00,0000-00-00,0,1121602
1121603,1121603,庭坂,,,11216,7,960-2261,福島市町庭坂字狐林,140.389847,37.771537,0000-00-00,0000-00-00,0,1121603
1121604,1121604,赤岩,,,11216,7,960-0251,福島市大笹生字赤岩,140.335545,37.80567,1910-10-13,2021-03-12,2,1121604
1121605,1121605,板谷,,,11216,6,992-1331,米沢市大字板谷,140.268815,37.811627,0000-00-00,0000-00-00,0,1121605
1121606,1121606,峠,,,11216,6,992-1303,米沢市大字大沢字峠,140.236041,37.811935,0000-00-00,0000-00-00,0,1121606
1121607,1121607,大沢,,,11216,6,992-1203,米沢市大字大沢字峠,140.19801,37.839775,0000-00-00,0000-00-00,0,1121607
1121608,1121608,関根,,,11216,6,992-1205,米沢市大字関根,140.146284,37.864592,0000-00-00,0000-00-00,0,1121608
1121609,1121609,米沢,,,11216,6,992-0027,米沢市駅前１丁目,140.128209,37.909478,0000-00-00,0000-00-00,0,1121609
1121610,1121610,置賜,,,11216,6,992-0112,米沢市大字浅川,140.142496,37.954093,0000-00-00,0000-00-00,0,1121610
1121611,1121611,高畠,,,11216,6,999-2174,東置賜郡高畠町大字福沢,140.15281,37.992314,0000-00-00,0000-00-00,0,1121611
1121612,1121612,赤湯,,,11216,6,999-2241,南陽市郡山,140.148978,38.047081,0000-00-00,0000-00-00,0,1121612
1121613,1121613,中川,,,11216,6,999-2203,南陽市小岩沢,140.203553,38.093349,0000-00-00,0000-00-00,0,1121613
1121614,1121614,羽前中山,,,11216,6,999-3246,上山市中山,140.218318,38.124158,0000-00-00,0000-00-00,0,1121614
1121615,1121615,かみのやま温泉,,,11216,6,999-3134,上山市矢来,140.27867,38.152259,0000-00-00,0000-00-00,0,1121615
1121616,1121616,茂吉記念館前,,,11216,6,999-3131,上山市北町弁天,140.298167,38.171249,0000-00-00,0000-00-00,0,1121616
1121617,1121617,蔵王,,,11216,6,990-2313,山形市大字松原,140.303299,38.20592,0000-00-00,0000-00-00,0,1121617
1121618,1121618,山形,,,11216,6,990-0039,山形市香澄町１丁目,140.327253,38.248098,0000-00-00,0000-00-00,0,1121618
1121619,1121619,北山形,,,11216,6,990-0057,山形市宮町１丁目,140.332658,38.265902,0000-00-00,0000-00-00,0,1121619
1121620,1121620,羽前千歳,,,11216,6,990-0811,山形市長町２丁目,140.342168,38.287313,0000-00-00,0000-00-00,0,1121620
1121621,1121621,南出羽,,,11216,6,990-2171,山形市七浦,140.344692,38.302834,0000-00-00,0000-00-00,0,1121621
1121622,1121622,漆山,,,11216,6,990-2161,山形市大字漆山,140.347661,38.314477,0000-00-00,0000-00-00,0,1121622
1121623,1121623,高擶,,,11216,6,994-0068,天童市大字高擶,140.358832,38.330726,0000-00-00,0000-00-00,0,1121623
1121636,1121636,天童南,,,11216,6,994-0049,山形県天童市南町三丁目,140.365853,38.342489,0000-00-00,0000-00-00,0,1121623
1121624,1121624,天童,,,11216,6,994-0034,天童市本町１,140.369303,38.35989,0000-00-00,0000-00-00,0,1121624
1121625,1121625,乱川,,,11216,6,994-0002,天童市大字乱川,140.374663,38.386554,0000-00-00,0000-00-00,0,1121625
1121626,1121626,神町,,,11216,6,999-3763,東根市神町中央１丁目,140.378389,38.412276,0000-00-00,0000-00-00,0,1121626
1121627,1121627,さくらんぼ東根,,,11216,6,999-3716,東根市大字蟹沢字鳥居崎１７４５番１,140.380677,38.42806,0000-00-00,0000-00-00,0,1121627
1121628,1121628,東根,,,11216,6,999-3701,東根市大字東根甲,140.384035,38.450863,0000-00-00,0000-00-00,0,1121628
1121629,1121629,村山,,,11216,6,995-0033,村山市大字楯岡新町１丁目１０番地,140.386399,38.477078,0000-00-00,0000-00-00,0,1121629
1121630,1121630,袖崎,,,11216,6,995-0001,村山市大字土生田,140.391295,38.548259,0000-00-00,0000-00-00,0,1121630
1121631,1121631,大石田,,,11216,6,999-4111,北村山郡大石田町大石田,140.375349,38.595916,0000-00-00,0000-00-00,0,1121631
1121632,1121632,北大石田,,,11216,6,999-4101,北村山郡大石田町鷹巣,140.371234,38.629487,0000-00-00,0000-00-00,0,1121632
1121633,1121633,芦沢,,,11216,6,999-4554,尾花沢市芦沢,140.361016,38.655258,0000-00-00,0000-00-00,0,1121633
1121634,1121634,舟形,,,11216,6,999-4600,最上郡舟形町,140.316157,38.691583,0000-00-00,0000-00-00,0,1121634
1121635,1120201,新庄,,,11216,6,996-0024,新庄市多門町,140.306064,38.76256,0000-00-00,0000-00-00,0,1121635
1121701,1123143,仙台,,,11217,4,980-0021,仙台市青葉区中央一丁目1-1,140.882158,38.260027,0000-00-00,0000-00-00,0,1121701
1121702,1121702,東照宮,,,11217,4,980-0004,仙台市青葉区宮町５,140.88682,38.277262,0000-00-00,0000-00-00,0,1121702
1121703,1121703,北仙台,,,11217,4,981-0913,仙台市青葉区昭和町,140.869885,38.281594,0000-00-00,0000-00-00,0,1121703
1121704,1121704,北山,,,11217,4,981-0931,仙台市青葉区北山２,140.851876,38.285154,0000-00-00,0000-00-00,0,1121704
1121722,1121722,東北福祉大前,,,11217,4,981-0943,仙台市青葉区国見１丁目２２２番地５号,140.842683,38.280468,0000-00-00,0000-00-00,0,1121704
1121705,1121705,国見,,,11217,4,981-0945,仙台市青葉区荒巻字坊主門,140.8335,38.274783,0000-00-00,0000-00-00,0,1121705
1121706,1121706,葛岡,,,11217,4,989-3121,仙台市青葉区郷六字葛岡下,140.818583,38.268816,0000-00-00,0000-00-00,0,1121706
1121707,1121707,陸前落合,,,11217,4,989-3125,仙台市青葉区下愛子森下,140.789896,38.273379,0000-00-00,0000-00-00,0,1121707
1121708,1121708,愛子,,,11217,4,989-3124,仙台市青葉区上愛子上町,140.761517,38.272661,0000-00-00,0000-00-00,0,1121708
1121709,1121709,陸前白沢,,,11217,4,989-3124,仙台市青葉区上愛子大道,140.702333,38.278117,0000-00-00,0000-00-00,0,1121709
1121710,1121710,熊ケ根,,,11217,4,989-3432,仙台市青葉区熊ヶ根字檀の原一番,140.680633,38.297947,0000-00-00,0000-00-00,0,1121710
1121711,1121711,西仙台ハイランド,,,11217,4,989-3431,仙台市青葉区作並字棒目木,140.665373,38.304188,0000-00-00,0000-00-00,2,1121711
1121712,1121712,作並,,,11217,4,989-3431,仙台市青葉区作並字相の沢,140.632467,38.317738,0000-00-00,0000-00-00,0,1121712
1121713,1121713,八ツ森,,,11217,4,989-3434,仙台市青葉区新川字深沢,140.615497,38.309041,0000-00-00,2014-03-15,2,1121713
1121714,1121714,奥新川,,,11217,4,989-3434,仙台市青葉区新川字岳山,140.594329,38.325953,0000-00-00,0000-00-00,0,1121714
1121715,1121715,面白山高原,,,11217,6,999-3301,山形市大字山寺,140.49712,38.333071,0000-00-00,0000-00-00,0,1121715
1121716,1121716,山寺,,,11217,6,999-3301,山形市大字山寺,140.434773,38.309561,0000-00-00,0000-00-00,0,1121716
1121717,1121717,高瀬,,,11217,6,990-2232,山形市大字下東山,140.396074,38.301677,0000-00-00,0000-00-00,0,1121717
1121718,1121718,楯山,,,11217,6,990-2221,山形市大字風間,140.370598,38.301632,0000-00-00,0000-00-00,0,1121718
1121719,1121620,羽前千歳,,,11217,6,990-0811,山形市長町２丁目,140.342168,38.287313,0000-00-00,0000-00-00,0,1121719
1121720,1121619,北山形,,,11217,6,990-0057,山形市宮町１丁目,140.332658,38.265902,0000-00-00,0000-00-00,0,1121720
1121721,1121618,山形,,,11217,6,990-0039,山形市香澄町１丁目,140.327253,38.248098,0000-00-00,0000-00-00,0,1121721
1121801,1121618,山形,,,11218,6,990-0039,山形市香澄町１丁目,140.327253,38.248098,0000-00-00,0000-00-00,0,1121801
1121802,1121619,北山形,,,11218,6,990-0057,山形市宮町１丁目,140.332658,38.265902,0000-00-00,0000-00-00,0,1121802
1121803,1121803,東金井,,,11218,6,990-0864,山形市陣場３丁目,140.302666,38.277058,0000-00-00,0000-00-00,0,1121803
1121804,1121804,羽前山辺,,,11218,6,990-0300,東村山郡山辺町大字山辺,140.271571,38.294756,0000-00-00,0000-00-00,0,1121804
1121805,1121805,羽前金沢,,,11218,6,990-0400,東村山郡中山町金沢,140.270516,38.320837,0000-00-00,0000-00-00,0,1121805
1121806,1121806,羽前長崎,,,11218,6,990-0400,東村山郡中山町長崎,140.273018,38.332969,0000-00-00,0000-00-00,0,1121806
1121807,1121807,南寒河江,,,11218,6,991-0043,寒河江市字島,140.27767,38.356033,0000-00-00,0000-00-00,0,1121807
1121808,1121808,寒河江,,,11218,6,991-0031,寒河江市本町１丁目,140.274487,38.372548,0000-00-00,0000-00-00,0,1121808
1121809,1121809,西寒河江,,,11218,6,991-0024,寒河江市字六供町,140.26662,38.379627,0000-00-00,0000-00-00,0,1121809
1121810,1121810,羽前高松,,,11218,6,990-0523,寒河江市大字八鍬,140.248666,38.397494,0000-00-00,0000-00-00,0,1121810
1121811,1121811,柴橋,,,11218,6,991-0063,寒河江市大字柴橋,140.22582,38.380874,0000-00-00,0000-00-00,0,1121811
1121812,1121812,左沢,,,11218,6,991-0801,西村山郡大江町左沢,140.208132,38.382223,0000-00-00,0000-00-00,0,1121812
1121901,1121609,米沢,,,11219,6,992-0027,米沢市駅前１丁目,140.128209,37.909478,0000-00-00,0000-00-00,0,1121901
1121902,1121902,南米沢,,,11219,6,992-0037,米沢市本町１丁目,140.108364,37.896043,0000-00-00,0000-00-00,0,1121902
1121903,1121903,西米沢,,,11219,6,992-0056,米沢市直江町,140.08481,37.917279,0000-00-00,0000-00-00,0,1121903
1121904,1121904,成島,,,11219,6,992-0083,米沢市広幡町成島,140.075584,37.94335,0000-00-00,0000-00-00,0,1121904
1121905,1121905,中郡,,,11219,6,999-0144,東置賜郡川西町大字時田,140.067286,37.969109,0000-00-00,0000-00-00,0,1121905
1121906,1121906,羽前小松,,,11219,6,999-0121,東置賜郡川西町大字上小松,140.048503,38.004721,0000-00-00,0000-00-00,0,1121906
1121907,1121907,犬川,,,11219,6,999-0133,東置賜郡川西町大字小松,140.052038,38.025333,0000-00-00,0000-00-00,0,1121907
1121908,1121908,今泉,,,11219,6,993-0033,長井市今泉,140.04412,38.056697,0000-00-00,0000-00-00,0,1121908
1121909,1121909,萩生,,,11219,6,999-0602,西置賜郡飯豊町大字萩生,140.004207,38.06182,0000-00-00,0000-00-00,0,1121909
1121910,1121910,羽前椿,,,11219,6,999-0604,西置賜郡飯豊町大字椿,139.994293,38.038636,0000-00-00,0000-00-00,0,1121910
1121911,1121911,手ノ子,,,11219,6,999-1111,西置賜郡飯豊町大字手ノ子,139.961264,38.011766,0000-00-00,0000-00-00,0,1121911
1121912,1121912,羽前沼沢,,,11219,6,999-1505,西置賜郡小国町大字百子沢,139.872497,38.028698,0000-00-00,0000-00-00,0,1121912
1121913,1121913,伊佐領,,,11219,6,999-1322,西置賜郡小国町大字伊佐領,139.822635,38.05105,0000-00-00,0000-00-00,0,1121913
1121914,1121914,羽前松岡,,,11219,6,999-1324,西置賜郡小国町大字松岡,139.780445,38.045391,0000-00-00,0000-00-00,0,1121914
1121915,1121915,小国,,,11219,6,999-1352,西置賜郡小国町大字岩井沢,139.750167,38.061422,0000-00-00,0000-00-00,0,1121915
1121916,1121916,越後金丸,,,11219,15,959-3228,岩船郡関川村大字金丸,139.663521,38.066474,0000-00-00,0000-00-00,0,1121916
1121917,1121917,越後片貝,,,11219,15,959-3226,岩船郡関川村大字片貝,139.62239,38.070712,0000-00-00,0000-00-00,0,1121917
1121918,1121918,越後下関,,,11219,15,959-3265,岩船郡関川村大字下関,139.560024,38.090037,0000-00-00,0000-00-00,0,1121918
1121919,1121919,越後大島,,,11219,15,959-3241,岩船郡関川村大字大島,139.518209,38.099721,0000-00-00,0000-00-00,0,1121919
1121920,1121412,坂町,,,11219,15,959-3132,村上市坂町,139.445838,38.119277,0000-00-00,0000-00-00,0,1121920
1122001,1120201,新庄,,,11220,6,996-0024,新庄市多門町,140.306064,38.76256,0000-00-00,0000-00-00,0,1122001
1122002,1122002,升形,,,11220,6,996-0111,新庄市大字升形字下夕野,140.24423,38.751646,0000-00-00,0000-00-00,0,1122002
1122003,1122003,羽前前波,,,11220,6,996-0111,新庄市大字升形字前波,140.209525,38.747654,0000-00-00,0000-00-00,0,1122003
1122004,1122004,津谷,,,11220,6,999-6311,最上郡戸沢村大字津谷,140.186375,38.737618,0000-00-00,0000-00-00,0,1122004
1122005,1122005,古口,,,11220,6,999-6801,最上郡戸沢村大字古口,140.14602,38.737129,0000-00-00,0000-00-00,0,1122005
1122006,1122006,高屋,,,11220,6,999-6401,最上郡戸沢村大字古口字高屋番外地,140.070936,38.752567,0000-00-00,0000-00-00,0,1122006
1122007,1122007,清川,,,11220,6,999-6606,東田川郡庄内町清川,140.020761,38.790152,0000-00-00,0000-00-00,0,1122007
1122008,1122008,狩川,,,11220,6,999-6601,東田川郡庄内町狩川,139.976777,38.79367,0000-00-00,0000-00-00,0,1122008
1122009,1122009,南野,,,11220,6,999-7727,東田川郡庄内町南野,139.944742,38.81813,0000-00-00,0000-00-00,0,1122009
1122010,1121434,余目,,,11220,6,999-7700,東田川郡庄内町沢田,139.911348,38.844321,0000-00-00,0000-00-00,0,1122010
1122101,1123156,小牛田,,,11221,4,987-0001,遠田郡美里町藤ケ崎,141.064355,38.541111,0000-00-00,0000-00-00,0,1122101
1122102,1122102,北浦,,,11221,4,987-0000,遠田郡美里町北浦,141.02305,38.55985,0000-00-00,0000-00-00,0,1122102
1122103,1122103,陸前谷地,,,11221,4,987-0000,遠田郡美里町北浦,140.999453,38.565152,0000-00-00,0000-00-00,0,1122103
1122104,1122104,古川,,,11221,4,989-6162,大崎市古川駅前大通り１丁目,140.967876,38.571192,0000-00-00,0000-00-00,0,1122104
1122105,1122105,塚目,,,11221,4,989-6225,大崎市古川塚目字金皿,140.937093,38.572474,0000-00-00,0000-00-00,0,1122105
1122106,1122106,西古川,,,11221,4,989-6214,大崎市古川新堀字旭町,140.895416,38.578214,0000-00-00,0000-00-00,0,1122106
1122107,1122107,東大崎,,,11221,4,989-6227,大崎市古川大崎伏見余在下,140.897015,38.605627,0000-00-00,0000-00-00,0,1122107
